{"placemarks":[{"address":"P20 Ebene 01 - Flughafen MUC, 85445 Oberding","coordinates":[11.78808,48.35196,0],"engineType":"CE","exterior":"GOOD","fuel":100,"interior":"GOOD","name":"B-GO4709","smartPhoneRequired":true,"vin":"WME4533421K070517"},{"address":"Erika-Mann-Straße 23, 80636 München","coordinates":[11.54294,48.14293,0],"engineType":"CE","exterior":"GOOD","fuel":38,"interior":"GOOD","name":"B-GO8563","smartPhoneRequired":true,"vin":"WDD1760121J512387"},{"address":"P20 Ebene 01 - Flughafen MUC, 85445 Oberding","coordinates":[11.78808,48.35196,0],"engineType":"CE","exterior":"GOOD","fuel":21,"interior":"GOOD","name":"B-GO3514","smartPhoneRequired":true,"vin":"WME4533421K036846"},{"address":"P20 Ebene 01 - Flughafen MUC, 85445 Oberding","coordinates":[11.78808,48.35196,0],"engineType":"CE","exterior":"GOOD","fuel":100,"interior":"GOOD","name":"B-GO3678","smartPhoneRequired":true,"vin":"WME4533421K037512"},{"address":"P20 Ebene 01 - Flughafen MUC, 85445 Oberding","coordinates":[11.78808,48.35196,0],"engineType":"CE","exterior":"GOOD","fuel":84,"interior":"GOOD","name":"B-GO4742","smartPhoneRequired":true,"vin":"WME4533421K070741"},{"address":"Karl-Hammerschmidt-Straße 49, 85609 Aschheim","coordinates":[11.68334,48.15209,0],"engineType":"CE","exterior":"GOOD","fuel":100,"interior":"GOOD","name":"B-GO3327","smartPhoneRequired":true,"vin":"WME4533421K036992"},{"address":"Gneisenaustraße 14, 80992 München","coordinates":[11.53166,48.17868,0],"engineType":"CE","exterior":"GOOD","fuel":100,"interior":"GOOD","name":"B-GO4747","smartPhoneRequired":true,"vin":"WME4533421K071160"},{"address":"P20 Ebene 01 - Flughafen MUC, 85445 Oberding","coordinates":[11.78808,48.35196,0],"engineType":"CE","exterior":"GOOD","fuel":53,"interior":"GOOD","name":"B-GO3474","smartPhoneRequired":true,"vin":"WME4533421K036732"},{"address":"Lindwurmstraße 2, 80337 München","coordinates":[11.56099,48.13078,0],"engineType":"CE","exterior":"GOOD","fuel":100,"interior":"GOOD","name":"B-GO4694","smartPhoneRequired":true,"vin":"WME4533421K071704"},{"address":"P20 Ebene 01 - Flughafen MUC, 85445 Oberding","coordinates":[11.78808,48.35196,0],"engineType":"CE","exterior":"GOOD","fuel":37,"interior":"GOOD","name":"B-GO3607","smartPhoneRequired":true,"vin":"WME4533421K036756"},{"address":"Arnulfstraße 9-11, 80335 München","coordinates":[11.55494,48.14215,0],"engineType":"CE","exterior":"GOOD","fuel":90,"interior":"GOOD","name":"B-GO3624","smartPhoneRequired":true,"vin":"WME4533421K036837"},{"address":"Spilhofstraße 42, 81927 München","coordinates":[11.63566,48.16556,0],"engineType":"CE","exterior":"GOOD","fuel":90,"interior":"GOOD","name":"B-GO3513","smartPhoneRequired":true,"vin":"WME4533421K037325"},{"address":"Medienallee 26, 85774 Unterföhring","coordinates":[11.65717,48.19052,0],"engineType":"CE","exterior":"GOOD","fuel":100,"interior":"GOOD","name":"B-GO4723","smartPhoneRequired":true,"vin":"WME4533421K071809"},{"address":"P20 Ebene 01 - Flughafen MUC, 85445 Oberding","coordinates":[11.78808,48.35196,0],"engineType":"CE","exterior":"GOOD","fuel":68,"interior":"GOOD","name":"B-GO3676","smartPhoneRequired":true,"vin":"WME4533421K037745"},{"address":"Pettenkoferstraße 30-32, 80336 München","coordinates":[11.55624,48.13484,0],"engineType":"CE","exterior":"GOOD","fuel":31,"interior":"GOOD","name":"B-GO3573","smartPhoneRequired":true,"vin":"WME4533421K037328"},{"address":"P20 Ebene 01 - Flughafen MUC, 85445 Oberding","coordinates":[11.78808,48.35196,0],"engineType":"CE","exterior":"GOOD","fuel":100,"interior":"GOOD","name":"B-GO4765","smartPhoneRequired":true,"vin":"WME4533421K072465"},{"address":"Campeon Neubiberg","coordinates":[11.61288,48.08081,0],"engineType":"CE","exterior":"GOOD","fuel":31,"interior":"GOOD","name":"B-GO4767","smartPhoneRequired":true,"vin":"WME4533421K069759"},{"address":"Pariser Str. 37, 81667 München","coordinates":[11.60104,48.12907,0],"engineType":"CE","exterior":"GOOD","fuel":100,"interior":"GOOD","name":"B-GO4687","smartPhoneRequired":true,"vin":"WME4533421K070574"},{"address":"Elsässer Str. 13, 81667 München","coordinates":[11.6051,48.13138,0],"engineType":"CE","exterior":"GOOD","fuel":62,"interior":"GOOD","name":"B-GO3606","smartPhoneRequired":true,"vin":"WME4533421K036141"},{"address":"Arnulfstraße 9-11, 80335 München","coordinates":[11.55494,48.14213,0],"engineType":"CE","exterior":"GOOD","fuel":100,"interior":"GOOD","name":"B-GO3516","smartPhoneRequired":true,"vin":"WME4533421K036076"},{"address":"Achentalstraße 9, 81671 München","coordinates":[11.61699,48.12197,0],"engineType":"CE","exterior":"GOOD","fuel":15,"interior":"GOOD","name":"B-GO3698","smartPhoneRequired":true,"vin":"WME4533421K039370"},{"address":"Karlspl. 2, 80335 München","coordinates":[11.56569,48.14001,0],"engineType":"CE","exterior":"GOOD","fuel":100,"interior":"GOOD","name":"B-GO4713","smartPhoneRequired":true,"vin":"WME4533421K070128"},{"address":"Plinganserstraße 142, 81369 München","coordinates":[11.54097,48.10134,0],"engineType":"CE","exterior":"GOOD","fuel":46,"interior":"GOOD","name":"B-GO4770","smartPhoneRequired":true,"vin":"WME4533421K069629"},{"address":"Guntherstraße 14, 80639 München","coordinates":[11.51138,48.15155,0],"engineType":"CE","exterior":"GOOD","fuel":100,"interior":"GOOD","name":"B-GO3531","smartPhoneRequired":true,"vin":"WME4533421K037065"},{"address":"P20 Ebene 01 - Flughafen MUC, 85445 Oberding","coordinates":[11.78808,48.35196,0],"engineType":"CE","exterior":"GOOD","fuel":25,"interior":"GOOD","name":"B-GO4699","smartPhoneRequired":true,"vin":"WME4533421K069661"},{"address":"Carl-Wery-Straße 26, 81739 München","coordinates":[11.64502,48.0904,0],"engineType":"CE","exterior":"GOOD","fuel":65,"interior":"GOOD","name":"B-GO4789","smartPhoneRequired":true,"vin":"WME4533421K071864"},{"address":"P20 Ebene 01 - Flughafen MUC, 85445 Oberding","coordinates":[11.78808,48.35196,0],"engineType":"CE","exterior":"GOOD","fuel":87,"interior":"GOOD","name":"B-GO4696","smartPhoneRequired":true,"vin":"WME4533421K069961"},{"address":"Pfefferstraße, 80335 München","coordinates":[11.5595,48.14167,0],"engineType":"CE","exterior":"GOOD","fuel":65,"interior":"GOOD","name":"B-GO3546","smartPhoneRequired":true,"vin":"WME4533421K036753"},{"address":"Hochstiftsweg 29, 81925 München","coordinates":[11.63252,48.16828,0],"engineType":"CE","exterior":"GOOD","fuel":96,"interior":"GOOD","name":"B-GO4681","smartPhoneRequired":true,"vin":"WME4533421K070243"},{"address":"Karlspl. 2, 80335 München","coordinates":[11.56571,48.14003,0],"engineType":"CE","exterior":"GOOD","fuel":46,"interior":"GOOD","name":"B-GO4289","smartPhoneRequired":true,"vin":"WME4533421K065496"},{"address":"Connollystraße 9, 80809 München","coordinates":[11.55054,48.18032,0],"engineType":"CE","exterior":"GOOD","fuel":100,"interior":"GOOD","name":"B-GO4714","smartPhoneRequired":true,"vin":"WME4533421K071047"},{"address":"Connollystraße 28, 80809 München","coordinates":[11.54738,48.18055,0],"engineType":"CE","exterior":"GOOD","fuel":56,"interior":"GOOD","name":"B-GO4666","smartPhoneRequired":true,"vin":"WME4533421K071330"},{"address":"Arnulfstraße 9-11, 80335 München","coordinates":[11.55481,48.14222,0],"engineType":"CE","exterior":"GOOD","fuel":100,"interior":"GOOD","name":"B-GO3715","smartPhoneRequired":true,"vin":"WME4533421K038852"},{"address":"Margit-Schramm-Straße 10, 80639 München","coordinates":[11.5017,48.14789,0],"engineType":"CE","exterior":"GOOD","fuel":100,"interior":"GOOD","name":"B-GO4668","smartPhoneRequired":true,"vin":"WME4533421K071783"},{"address":"Lilienthalallee 35, 80939 München","coordinates":[11.60958,48.1966,0],"engineType":"CE","exterior":"GOOD","fuel":90,"interior":"GOOD","name":"B-GO4649","smartPhoneRequired":true,"vin":"WME4533421K070148"},{"address":"Osterfeldstraße 88-90, 85737 Ismaning","coordinates":[11.68459,48.2303,0],"engineType":"CE","exterior":"GOOD","fuel":56,"interior":"GOOD","name":"B-GO4642","smartPhoneRequired":true,"vin":"WME4533421K069621"},{"address":"Therese-Giehse-Allee 104, 81739 München","coordinates":[11.64392,48.08633,0],"engineType":"CE","exterior":"GOOD","fuel":100,"interior":"GOOD","name":"B-GO8560","smartPhoneRequired":true,"vin":"WDD1760121J512338"},{"address":"Hundesee, 80995 München","coordinates":[11.48043,48.19894,0],"engineType":"CE","exterior":"GOOD","fuel":40,"interior":"GOOD","name":"B-GO4293","smartPhoneRequired":true,"vin":"WME4533421K064073"},{"address":"P20 Ebene 01 - Flughafen MUC, 85445 Oberding","coordinates":[11.78808,48.35196,0],"engineType":"CE","exterior":"GOOD","fuel":90,"interior":"GOOD","name":"B-GO4684","smartPhoneRequired":true,"vin":"WME4533421K070386"},{"address":"Oberanger 44, 80331 München","coordinates":[11.56868,48.13376,0],"engineType":"CE","exterior":"GOOD","fuel":43,"interior":"GOOD","name":"B-GO3630","smartPhoneRequired":true,"vin":"WME4533421K036665"},{"address":"Schüleinpl. 7, 81673 München","coordinates":[11.64216,48.12809,0],"engineType":"CE","exterior":"GOOD","fuel":100,"interior":"GOOD","name":"B-GO3647","smartPhoneRequired":true,"vin":"WME4533421K035690"},{"address":"Fafnerstraße 36, 80639 München","coordinates":[11.50668,48.15164,0],"engineType":"CE","exterior":"GOOD","fuel":50,"interior":"GOOD","name":"B-GO4802","smartPhoneRequired":true,"vin":"WME4533421K073093"},{"address":"Riesenfeldstraße 7, 80809 München","coordinates":[11.56484,48.17741,0],"engineType":"CE","exterior":"GOOD","fuel":28,"interior":"GOOD","name":"B-GO3611","smartPhoneRequired":true,"vin":"WME4533421K036465"},{"address":"Tassilopl. 1, 81541 München","coordinates":[11.59327,48.12289,0],"engineType":"CE","exterior":"GOOD","fuel":37,"interior":"GOOD","name":"B-GO3673","smartPhoneRequired":true,"vin":"WME4533421K039837"},{"address":"Kagerstraße 8A, 81669 München","coordinates":[11.60527,48.10966,0],"engineType":"CE","exterior":"GOOD","fuel":96,"interior":"GOOD","name":"B-GO3655","smartPhoneRequired":true,"vin":"WME4533421K037491"},{"address":"Washingtonstraße 10, 80639 München","coordinates":[11.52019,48.15229,0],"engineType":"CE","exterior":"GOOD","fuel":100,"interior":"GOOD","name":"B-GO3618","smartPhoneRequired":true,"vin":"WME4533421K036108"},{"address":"Campeon Neubiberg","coordinates":[11.61288,48.08081,0],"engineType":"CE","exterior":"GOOD","fuel":25,"interior":"GOOD","name":"B-GO3671","smartPhoneRequired":true,"vin":"WME4533421K037544"},{"address":"Welfenstraße 9, 81541 München","coordinates":[11.58775,48.12204,0],"engineType":"CE","exterior":"GOOD","fuel":81,"interior":"GOOD","name":"B-GO4252","smartPhoneRequired":true,"vin":"WME4533421K063215"},{"address":"Winthirstraße 31-33, 80639 München","coordinates":[11.52695,48.15721,0],"engineType":"CE","exterior":"GOOD","fuel":81,"interior":"GOOD","name":"B-GO4692","smartPhoneRequired":true,"vin":"WME4533421K071691"},{"address":"Zamilastraße 27, 81677 München","coordinates":[11.64231,48.13635,0],"engineType":"CE","exterior":"GOOD","fuel":59,"interior":"GOOD","name":"B-GO4280","smartPhoneRequired":true,"vin":"WME4533421K063818"},{"address":"Karlspl. 2, 80335 München","coordinates":[11.56579,48.14015,0],"engineType":"CE","exterior":"GOOD","fuel":37,"interior":"GOOD","name":"B-GO4270","smartPhoneRequired":true,"vin":"WME4533421K064089"},{"address":"Karlspl. 2, 80335 München","coordinates":[11.56589,48.14021,0],"engineType":"CE","exterior":"GOOD","fuel":100,"interior":"GOOD","name":"B-GO4268","smartPhoneRequired":true,"vin":"WME4533421K065147"},{"address":"Anschütz-Kaempfe-Straße 4, 81677 München","coordinates":[11.63145,48.13658,0],"engineType":"CE","exterior":"GOOD","fuel":53,"interior":"GOOD","name":"B-GO4266","smartPhoneRequired":true,"vin":"WME4533421K065483"},{"address":"Neumarkter Str. 8, 81673 München","coordinates":[11.61839,48.13311,0],"engineType":"CE","exterior":"GOOD","fuel":46,"interior":"GOOD","name":"B-GO4271","smartPhoneRequired":true,"vin":"WME4533421K064103"},{"address":"Karlspl. 2, 80335 München","coordinates":[11.56572,48.14001,0],"engineType":"CE","exterior":"GOOD","fuel":100,"interior":"GOOD","name":"B-GO4254","smartPhoneRequired":true,"vin":"WME4533421K063709"},{"address":"Dieselstraße 3, 85774 Unterföhring","coordinates":[11.65204,48.18996,0],"engineType":"CE","exterior":"GOOD","fuel":28,"interior":"GOOD","name":"B-GO3716","smartPhoneRequired":true,"vin":"WME4533421K039478"},{"address":"Lindwurmstraße 16-20, 80337 München","coordinates":[11.55702,48.12897,0],"engineType":"CE","exterior":"GOOD","fuel":34,"interior":"GOOD","name":"B-GO8656","smartPhoneRequired":true,"vin":"WDC1569431J294529"},{"address":"Einsteinstraße 46, 81675 München","coordinates":[11.60152,48.13564,0],"engineType":"CE","exterior":"GOOD","fuel":81,"interior":"GOOD","name":"B-GO4638","smartPhoneRequired":true,"vin":"WME4533421K072624"},{"address":"Moosacher Str. 81, 80809 München","coordinates":[11.5522,48.18586,0],"engineType":"CE","exterior":"GOOD","fuel":100,"interior":"GOOD","name":"B-GO3705","smartPhoneRequired":true,"vin":"WME4533421K039231"},{"address":"Karlspl. 2, 80335 München","coordinates":[11.56578,48.14007,0],"engineType":"CE","exterior":"GOOD","fuel":100,"interior":"GOOD","name":"B-GO3616","smartPhoneRequired":true,"vin":"WME4533421K035759"},{"address":"Siemensallee 72, 81379 München","coordinates":[11.52276,48.09055,0],"engineType":"CE","exterior":"GOOD","fuel":43,"interior":"GOOD","name":"B-GO3125","smartPhoneRequired":true,"vin":"WME4533421K037219"},{"address":"Steinerstraße 12, 81369 München","coordinates":[11.53861,48.10379,0],"engineType":"CE","exterior":"GOOD","fuel":100,"interior":"GOOD","name":"B-GO3692","smartPhoneRequired":true,"vin":"WME4533421K038306"},{"address":"P20 Ebene 01 - Flughafen MUC, 85445 Oberding","coordinates":[11.78808,48.35196,0],"engineType":"CE","exterior":"GOOD","fuel":100,"interior":"GOOD","name":"B-GO3120","smartPhoneRequired":true,"vin":"WME4533421K037451"},{"address":"Hohenwaldeckstraße 6, 81541 München","coordinates":[11.59438,48.11749,0],"engineType":"CE","exterior":"GOOD","fuel":68,"interior":"GOOD","name":"B-GO3700","smartPhoneRequired":true,"vin":"WME4533421K039397"},{"address":"Carl-Wery-Straße, 81739 München","coordinates":[11.64504,48.09343,0],"engineType":"CE","exterior":"GOOD","fuel":100,"interior":"GOOD","name":"B-GO3594","smartPhoneRequired":true,"vin":"WME4533421K037371"},{"address":"Baierbrunner Str. 33, 81379 München","coordinates":[11.53203,48.09613,0],"engineType":"CE","exterior":"GOOD","fuel":50,"interior":"GOOD","name":"B-GO4645","smartPhoneRequired":true,"vin":"WME4533421K069806"},{"address":"Moosacher Str. 99, 80809 München","coordinates":[11.54409,48.18605,0],"engineType":"CE","exterior":"GOOD","fuel":26,"interior":"GOOD","name":"B-GO8593","smartPhoneRequired":true,"vin":"WDD1760431J513553"},{"address":"Sandtnerstraße 3, 80339 München","coordinates":[11.53872,48.13313,0],"engineType":"CE","exterior":"GOOD","fuel":53,"interior":"GOOD","name":"B-GO3574","smartPhoneRequired":true,"vin":"WME4533421K037010"},{"address":"Siemensallee 76, 81379 München","coordinates":[11.52252,48.09056,0],"engineType":"CE","exterior":"GOOD","fuel":100,"interior":"GOOD","name":"B-GO3555","smartPhoneRequired":true,"vin":"WME4533421K036706"},{"address":"Karlspl. 2, 80335 München","coordinates":[11.5659,48.14021,0],"engineType":"CE","exterior":"GOOD","fuel":72,"interior":"GOOD","name":"B-GO5445","smartPhoneRequired":true,"vin":"WDC1569431J300337"},{"address":"P20 Ebene 01 - Flughafen MUC, 85445 Oberding","coordinates":[11.78808,48.35196,0],"engineType":"CE","exterior":"GOOD","fuel":56,"interior":"GOOD","name":"B-GO5444","smartPhoneRequired":true,"vin":"WDC1569431J300244"},{"address":"Hundesee, 80995 München","coordinates":[11.48051,48.19894,0],"engineType":"CE","exterior":"GOOD","fuel":92,"interior":"GOOD","name":"B-GO8666","smartPhoneRequired":true,"vin":"WDC1569431J294324"},{"address":"Gotthardstraße 55, 80689 München","coordinates":[11.50153,48.13538,0],"engineType":"CE","exterior":"GOOD","fuel":98,"interior":"GOOD","name":"B-GO5442","smartPhoneRequired":true,"vin":"WDC1569431J300648"},{"address":"Wredestraße 7, 80335 München","coordinates":[11.54898,48.14437,0],"engineType":"CE","exterior":"GOOD","fuel":64,"interior":"GOOD","name":"B-GO5435","smartPhoneRequired":true,"vin":"WDC1569121J296631"},{"address":"P20 Ebene 01 - Flughafen MUC, 85445 Oberding","coordinates":[11.78808,48.35196,0],"engineType":"CE","exterior":"GOOD","fuel":65,"interior":"GOOD","name":"B-GO4648","smartPhoneRequired":true,"vin":"WME4533421K070300"},{"address":"Max-Joseph-Straße 4, 80333 München","coordinates":[11.5703,48.14314,0],"engineType":"CE","exterior":"GOOD","fuel":58,"interior":"GOOD","name":"B-GO5433","smartPhoneRequired":true,"vin":"WDC1569121J296159"},{"address":"Siegenburger Str. 51, 81373 München","coordinates":[11.52578,48.12665,0],"engineType":"CE","exterior":"GOOD","fuel":46,"interior":"GOOD","name":"B-GO5427","smartPhoneRequired":true,"vin":"WDC1569121J296393"},{"address":"Harnierpl. 12, 80939 München","coordinates":[11.61417,48.19387,0],"engineType":"CE","exterior":"GOOD","fuel":100,"interior":"GOOD","name":"B-GO3507","smartPhoneRequired":true,"vin":"WME4533421K037210"},{"address":"Thomas-Hauser-Straße 19, 81829 München","coordinates":[11.65097,48.13292,0],"engineType":"CE","exterior":"GOOD","fuel":76,"interior":"GOOD","name":"B-GO8642","smartPhoneRequired":true,"vin":"WDD1760431J513671"},{"address":"Görzer Str. 48, 81549 München","coordinates":[11.60737,48.10928,0],"engineType":"CE","exterior":"GOOD","fuel":21,"interior":"GOOD","name":"B-GO3527","smartPhoneRequired":true,"vin":"WME4533421K035514"},{"address":"Sonnenstraße 21, 80331 München","coordinates":[11.56524,48.13592,0],"engineType":"CE","exterior":"GOOD","fuel":100,"interior":"GOOD","name":"B-GO3524","smartPhoneRequired":true,"vin":"WME4533421K035489"},{"address":"Harsdörferstraße 11, 81669 München","coordinates":[11.60523,48.11182,0],"engineType":"CE","exterior":"GOOD","fuel":90,"interior":"GOOD","name":"B-GO3523","smartPhoneRequired":true,"vin":"WME4533421K036105"},{"address":"Weißenseestraße 116, 81539 München","coordinates":[11.58187,48.10843,0],"engineType":"CE","exterior":"GOOD","fuel":46,"interior":"GOOD","name":"B-GO3121","smartPhoneRequired":true,"vin":"WME4533421K036028"},{"address":"Zugspitzstraße 6, 81541 München","coordinates":[11.58472,48.11778,0],"engineType":"CE","exterior":"GOOD","fuel":100,"interior":"GOOD","name":"B-GO3540","smartPhoneRequired":true,"vin":"WME4533421K037298"},{"address":"Thomas-Wimmer-Ring 3, 80539 München","coordinates":[11.58294,48.13519,0],"engineType":"CE","exterior":"GOOD","fuel":37,"interior":"GOOD","name":"B-GO3122","smartPhoneRequired":true,"vin":"WME4533421K035889"},{"address":"P20 Ebene 01 - Flughafen MUC, 85445 Oberding","coordinates":[11.78808,48.35196,0],"engineType":"CE","exterior":"GOOD","fuel":87,"interior":"GOOD","name":"B-GO4707","smartPhoneRequired":true,"vin":"WME4533421K070427"},{"address":"P20 Ebene 01 - Flughafen MUC, 85445 Oberding","coordinates":[11.78808,48.35196,0],"engineType":"CE","exterior":"GOOD","fuel":96,"interior":"GOOD","name":"B-GO8664","smartPhoneRequired":true,"vin":"WDC1569431J293638"},{"address":"Geroltstraße 12, 80339 München","coordinates":[11.53831,48.1351,0],"engineType":"CE","exterior":"GOOD","fuel":18,"interior":"GOOD","name":"B-GO8661","smartPhoneRequired":true,"vin":"WDC1569431J294018"},{"address":"Beta-Straße 6, 85774 Unterföhring","coordinates":[11.65615,48.19021,0],"engineType":"CE","exterior":"GOOD","fuel":62,"interior":"GOOD","name":"B-GO3131","smartPhoneRequired":true,"vin":"WME4533421K037439"},{"address":"Tumblingerstraße 28, 80337 München","coordinates":[11.55765,48.12594,0],"engineType":"CE","exterior":"GOOD","fuel":46,"interior":"GOOD","name":"B-GO3497","smartPhoneRequired":true,"vin":"WME4533421K036946"},{"address":"Infanteriestraße 19, 80797 München","coordinates":[11.55334,48.16098,0],"engineType":"CE","exterior":"GOOD","fuel":98,"interior":"GOOD","name":"B-GO8660","smartPhoneRequired":true,"vin":"WDC1569431J294914"},{"address":"P20 Ebene 01 - Flughafen MUC, 85445 Oberding","coordinates":[11.78808,48.35196,0],"engineType":"CE","exterior":"GOOD","fuel":30,"interior":"GOOD","name":"B-GO8659","smartPhoneRequired":true,"vin":"WDC1569431J294081"},{"address":"P20 Ebene 01 - Flughafen MUC, 85445 Oberding","coordinates":[11.78808,48.35196,0],"engineType":"CE","exterior":"GOOD","fuel":28,"interior":"GOOD","name":"B-GO8658","smartPhoneRequired":true,"vin":"WDC1569431J294044"},{"address":"Thomas-Dehler-Straße 18, 81737 München","coordinates":[11.64533,48.09957,0],"engineType":"CE","exterior":"GOOD","fuel":28,"interior":"GOOD","name":"B-GO8657","smartPhoneRequired":true,"vin":"WDC1569431J294682"},{"address":"Etzweg 10, 85774 Unterföhring","coordinates":[11.65851,48.19236,0],"engineType":"CE","exterior":"GOOD","fuel":59,"interior":"GOOD","name":"B-GO3484","smartPhoneRequired":true,"vin":"WME4533421K036854"},{"address":"Berg-am-Laim-Straße 75A, 81673 München","coordinates":[11.6193,48.13048,0],"engineType":"CE","exterior":"GOOD","fuel":15,"interior":"GOOD","name":"B-GO3681","smartPhoneRequired":true,"vin":"WME4533421K037332"},{"address":"Frankpl. 16, 80939 München","coordinates":[11.61334,48.1937,0],"engineType":"CE","exterior":"GOOD","fuel":60,"interior":"GOOD","name":"B-GO8654","smartPhoneRequired":true,"vin":"WDC1569121J294788"},{"address":"Slevogtstraße 39, 81379 München","coordinates":[11.52287,48.10395,0],"engineType":"CE","exterior":"GOOD","fuel":98,"interior":"GOOD","name":"B-GO8653","smartPhoneRequired":true,"vin":"WDC1569121J294297"},{"address":"Beethovenstraße 8, 80336 München","coordinates":[11.55684,48.13256,0],"engineType":"CE","exterior":"GOOD","fuel":100,"interior":"GOOD","name":"B-GO3475","smartPhoneRequired":true,"vin":"WME4533421K036916"},{"address":"Darmstädter Str., 80992 München","coordinates":[11.52444,48.17548,0],"engineType":"CE","exterior":"GOOD","fuel":80,"interior":"GOOD","name":"B-GO8652","smartPhoneRequired":true,"vin":"WDC1569121J294414"},{"address":"Gollierstraße 70, 80339 München","coordinates":[11.5334,48.1364,0],"engineType":"CE","exterior":"GOOD","fuel":22,"interior":"GOOD","name":"B-GO8651","smartPhoneRequired":true,"vin":"WDC1569121J294387"},{"address":"Karlspl. 4, 80335 München","coordinates":[11.56601,48.14022,0],"engineType":"CE","exterior":"GOOD","fuel":76,"interior":"GOOD","name":"B-GO8650","smartPhoneRequired":true,"vin":"WDC1569121J295376"},{"address":"P20 Ebene 01 - Flughafen MUC, 85445 Oberding","coordinates":[11.78808,48.35196,0],"engineType":"CE","exterior":"GOOD","fuel":18,"interior":"GOOD","name":"B-GO3632","smartPhoneRequired":true,"vin":"WME4533421K037584"},{"address":"P20 Ebene 01 - Flughafen MUC, 85445 Oberding","coordinates":[11.78808,48.35196,0],"engineType":"CE","exterior":"GOOD","fuel":12,"interior":"GOOD","name":"B-GO8635","smartPhoneRequired":true,"vin":"WDD1760431J512949"},{"address":"Knödel G., 81671 München","coordinates":[11.60633,48.12491,0],"engineType":"CE","exterior":"GOOD","fuel":54,"interior":"GOOD","name":"B-GO8646","smartPhoneRequired":true,"vin":"WDD1760431J512619"},{"address":"Am Werkstor, 81671 München","coordinates":[11.60679,48.12467,0],"engineType":"CE","exterior":"GOOD","fuel":42,"interior":"GOOD","name":"B-GO8644","smartPhoneRequired":true,"vin":"WDD1760431J513743"},{"address":"Arnulfstraße 9-11, 80335 München","coordinates":[11.55473,48.14216,0],"engineType":"CE","exterior":"GOOD","fuel":40,"interior":"GOOD","name":"B-GO8643","smartPhoneRequired":true,"vin":"WDD1760431J514224"},{"address":"Bergmannstraße 28, 80339 München","coordinates":[11.53734,48.13663,0],"engineType":"CE","exterior":"GOOD","fuel":34,"interior":"GOOD","name":"B-GO8640","smartPhoneRequired":true,"vin":"WDD1760431J512296"},{"address":"P20 Ebene 01 - Flughafen MUC, 85445 Oberding","coordinates":[11.78808,48.35196,0],"engineType":"CE","exterior":"GOOD","fuel":34,"interior":"GOOD","name":"B-GO8639","smartPhoneRequired":true,"vin":"WDD1760431J514646"},{"address":"Mauerkircherstraße 197, 81925 München","coordinates":[11.61995,48.1684,0],"engineType":"CE","exterior":"GOOD","fuel":80,"interior":"GOOD","name":"B-GO8637","smartPhoneRequired":true,"vin":"WDD1760431J514585"},{"address":"Guldeinstraße 34, 80339 München","coordinates":[11.53226,48.13882,0],"engineType":"CE","exterior":"GOOD","fuel":46,"interior":"GOOD","name":"B-GO3149","smartPhoneRequired":true,"vin":"WME4533421K035688"},{"address":"Gneisenaustraße 21, 80992 München","coordinates":[11.53394,48.17898,0],"engineType":"CE","exterior":"GOOD","fuel":25,"interior":"GOOD","name":"B-GO3547","smartPhoneRequired":true,"vin":"WME4533421K037254"},{"address":"P20 Ebene 01 - Flughafen MUC, 85445 Oberding","coordinates":[11.78808,48.35196,0],"engineType":"CE","exterior":"GOOD","fuel":18,"interior":"GOOD","name":"B-GO3461","smartPhoneRequired":true,"vin":"WME4533421K037260"},{"address":"Landsberger Str. 88, 80339 München","coordinates":[11.53903,48.13986,0],"engineType":"CE","exterior":"GOOD","fuel":98,"interior":"GOOD","name":"B-GO8641","smartPhoneRequired":true,"vin":"WDD1760431J515386"},{"address":"Innere Wiener Straße 7B, 81667 München","coordinates":[11.59304,48.13342,0],"engineType":"CE","exterior":"GOOD","fuel":100,"interior":"GOOD","name":"B-GO3670","smartPhoneRequired":true,"vin":"WME4533421K036215"},{"address":"Andreestraße 5, 80634 München","coordinates":[11.52958,48.15182,0],"engineType":"CE","exterior":"GOOD","fuel":46,"interior":"GOOD","name":"B-GO3517","smartPhoneRequired":true,"vin":"WME4533421K035507"},{"address":"Thalkirchner Str. 72, 80337 München","coordinates":[11.56291,48.12648,0],"engineType":"CE","exterior":"GOOD","fuel":100,"interior":"GOOD","name":"B-GO8632","smartPhoneRequired":true,"vin":"WDD1760431J513203"},{"address":"Ohmstraße 5, 85609 Aschheim","coordinates":[11.6847,48.15252,0],"engineType":"CE","exterior":"GOOD","fuel":52,"interior":"GOOD","name":"B-GO8630","smartPhoneRequired":true,"vin":"WDD1760431J513607"},{"address":"Hörselbergstraße 12-14, 81677 München","coordinates":[11.61958,48.14165,0],"engineType":"CE","exterior":"GOOD","fuel":48,"interior":"GOOD","name":"B-GO8631","smartPhoneRequired":true,"vin":"WDD1760431J513895"},{"address":"Beethovenstraße 8, 80336 München","coordinates":[11.55686,48.13257,0],"engineType":"CE","exterior":"GOOD","fuel":98,"interior":"GOOD","name":"B-GO8629","smartPhoneRequired":true,"vin":"WDD1760431J512880"},{"address":"Maximilianspl. 5, 80333 München","coordinates":[11.57069,48.14217,0],"engineType":"CE","exterior":"GOOD","fuel":38,"interior":"GOOD","name":"B-GO8626","smartPhoneRequired":true,"vin":"WDD1760431J514246"},{"address":"Sonnenstraße 20, 80331 München","coordinates":[11.56471,48.136,0],"engineType":"CE","exterior":"GOOD","fuel":28,"interior":"GOOD","name":"B-GO8625","smartPhoneRequired":true,"vin":"WDD1760431J513870"},{"address":"Wiener Platz 8, 81667 München","coordinates":[11.59662,48.13439,0],"engineType":"CE","exterior":"GOOD","fuel":22,"interior":"GOOD","name":"B-GO8624","smartPhoneRequired":true,"vin":"WDD1760431J513819"},{"address":"Hirschgartenallee 49, 80639 München","coordinates":[11.50625,48.15469,0],"engineType":"CE","exterior":"GOOD","fuel":46,"interior":"GOOD","name":"B-GO8622","smartPhoneRequired":true,"vin":"WDD1760431J514705"},{"address":"Otto-Hahn-Ring 6, 81739 München","coordinates":[11.64932,48.09234,0],"engineType":"CE","exterior":"GOOD","fuel":34,"interior":"GOOD","name":"B-GO8623","smartPhoneRequired":true,"vin":"WDD1760431J514858"},{"address":"P20 Ebene 01 - Flughafen MUC, 85445 Oberding","coordinates":[11.78808,48.35196,0],"engineType":"CE","exterior":"GOOD","fuel":40,"interior":"GOOD","name":"B-GO8621","smartPhoneRequired":true,"vin":"WDD1760431J513963"},{"address":"P20 Ebene 01 - Flughafen MUC, 85445 Oberding","coordinates":[11.78808,48.35196,0],"engineType":"CE","exterior":"GOOD","fuel":78,"interior":"GOOD","name":"B-GO8620","smartPhoneRequired":true,"vin":"WDD1760431J514423"},{"address":"P20 Ebene 01 - Flughafen MUC, 85445 Oberding","coordinates":[11.78808,48.35196,0],"engineType":"CE","exterior":"GOOD","fuel":80,"interior":"GOOD","name":"B-GO8619","smartPhoneRequired":true,"vin":"WDD1760431J512929"},{"address":"P20 Ebene 01 - Flughafen MUC, 85445 Oberding","coordinates":[11.78808,48.35196,0],"engineType":"CE","exterior":"GOOD","fuel":100,"interior":"GOOD","name":"B-GO3649","smartPhoneRequired":true,"vin":"WME4533421K035681"},{"address":"Landwehrstraße 67, 80336 München","coordinates":[11.55648,48.13631,0],"engineType":"CE","exterior":"GOOD","fuel":22,"interior":"GOOD","name":"B-GO8614","smartPhoneRequired":true,"vin":"WDD1760431J511803"},{"address":"Agnes-Pockels-Bogen 21, 80992 München","coordinates":[11.53386,48.1732,0],"engineType":"CE","exterior":"GOOD","fuel":74,"interior":"GOOD","name":"B-GO8613","smartPhoneRequired":true,"vin":"WDD1760431J513687"},{"address":"P20 Ebene 01 - Flughafen MUC, 85445 Oberding","coordinates":[11.78808,48.35196,0],"engineType":"CE","exterior":"GOOD","fuel":38,"interior":"GOOD","name":"B-GO8612","smartPhoneRequired":true,"vin":"WDD1760431J514091"},{"address":"Harnierpl. 12, 80939 München","coordinates":[11.61417,48.19391,0],"engineType":"CE","exterior":"GOOD","fuel":34,"interior":"GOOD","name":"B-GO8608","smartPhoneRequired":true,"vin":"WDD1760431J514629"},{"address":"Otto-Hahn-Ring 6, 81739 München","coordinates":[11.64776,48.09215,0],"engineType":"CE","exterior":"GOOD","fuel":74,"interior":"GOOD","name":"B-GO8610","smartPhoneRequired":true,"vin":"WDD1760431J515973"},{"address":"Harnierpl. 14, 80939 München","coordinates":[11.61404,48.19391,0],"engineType":"CE","exterior":"GOOD","fuel":22,"interior":"GOOD","name":"B-GO8605","smartPhoneRequired":true,"vin":"WDD1760431J515082"},{"address":"Norderneyer Str. 3, 80809 München","coordinates":[11.56004,48.18493,0],"engineType":"CE","exterior":"GOOD","fuel":62,"interior":"GOOD","name":"B-GO3583","smartPhoneRequired":true,"vin":"WME4533421K036434"},{"address":"Georg-Böhmer-Straße 22, 81245 München","coordinates":[11.41238,48.1572,0],"engineType":"CE","exterior":"GOOD","fuel":82,"interior":"GOOD","name":"B-GO8607","smartPhoneRequired":true,"vin":"WDD1760431J515498"},{"address":"Brienner Str. 16, 80333 München","coordinates":[11.57308,48.14368,0],"engineType":"CE","exterior":"GOOD","fuel":62,"interior":"GOOD","name":"B-GO8604","smartPhoneRequired":true,"vin":"WDD1760431J515524"},{"address":"Burgkmairstraße 25, 80686 München","coordinates":[11.51145,48.13149,0],"engineType":"CE","exterior":"GOOD","fuel":18,"interior":"GOOD","name":"B-GO8598","smartPhoneRequired":true,"vin":"WDD1760431J510772"},{"address":"Barbarossastraße 20, 81677 München","coordinates":[11.61988,48.13973,0],"engineType":"CE","exterior":"GOOD","fuel":70,"interior":"GOOD","name":"B-GO8603","smartPhoneRequired":true,"vin":"WDD1760431J514733"},{"address":"Ungsteiner Str. 21, 81539 München","coordinates":[11.59721,48.11285,0],"engineType":"CE","exterior":"GOOD","fuel":26,"interior":"GOOD","name":"B-GO8602","smartPhoneRequired":true,"vin":"WDD1760431J512666"},{"address":"Thomas-Hauser-Straße 19, 81829 München","coordinates":[11.65172,48.13277,0],"engineType":"CE","exterior":"GOOD","fuel":50,"interior":"GOOD","name":"B-GO8601","smartPhoneRequired":true,"vin":"WDD1760431J514134"},{"address":"Herzog-Wilhelm-Straße 28, 80331 München","coordinates":[11.5672,48.13522,0],"engineType":"CE","exterior":"GOOD","fuel":86,"interior":"GOOD","name":"B-GO8600","smartPhoneRequired":true,"vin":"WDD1760431J514729"},{"address":"P20 Ebene 01 - Flughafen MUC, 85445 Oberding","coordinates":[11.78808,48.35196,0],"engineType":"CE","exterior":"GOOD","fuel":18,"interior":"GOOD","name":"B-GO8599","smartPhoneRequired":true,"vin":"WDD1760431J514894"},{"address":"ZDF-Straße 1, 85774 Unterföhring","coordinates":[11.65691,48.19255,0],"engineType":"CE","exterior":"GOOD","fuel":40,"interior":"GOOD","name":"B-GO3662","smartPhoneRequired":true,"vin":"WME4533421K036768"},{"address":"P20 Ebene 01 - Flughafen MUC, 85445 Oberding","coordinates":[11.78808,48.35196,0],"engineType":"CE","exterior":"GOOD","fuel":50,"interior":"GOOD","name":"B-GO8594","smartPhoneRequired":true,"vin":"WDD1760431J513166"},{"address":"Dillwächterstraße 4, 80686 München","coordinates":[11.52661,48.13341,0],"engineType":"CE","exterior":"GOOD","fuel":81,"interior":"GOOD","name":"B-GO3528","smartPhoneRequired":true,"vin":"WME4533421K037471"},{"address":"Wotanstraße 103, 80639 München","coordinates":[11.50865,48.15329,0],"engineType":"CE","exterior":"GOOD","fuel":44,"interior":"GOOD","name":"B-GO8591","smartPhoneRequired":true,"vin":"WDD1760431J511919"},{"address":"Connollystraße 28, 80809 München","coordinates":[11.54751,48.18052,0],"engineType":"CE","exterior":"GOOD","fuel":90,"interior":"GOOD","name":"B-GO3667","smartPhoneRequired":true,"vin":"WME4533421K037302"},{"address":"Laplacestraße 15, 81679 München","coordinates":[11.60751,48.14621,0],"engineType":"CE","exterior":"GOOD","fuel":74,"interior":"GOOD","name":"B-GO8590","smartPhoneRequired":true,"vin":"WDD1760431J511428"},{"address":"P20 Ebene 01 - Flughafen MUC, 85445 Oberding","coordinates":[11.78808,48.35196,0],"engineType":"CE","exterior":"GOOD","fuel":54,"interior":"GOOD","name":"B-GO8587","smartPhoneRequired":true,"vin":"WDD1760121J515489"},{"address":"P20 Ebene 01 - Flughafen MUC, 85445 Oberding","coordinates":[11.78808,48.35196,0],"engineType":"CE","exterior":"GOOD","fuel":54,"interior":"GOOD","name":"B-GO8588","smartPhoneRequired":true,"vin":"WDD1760121J513026"},{"address":"Oberföhringer Str. 155, 81925 München","coordinates":[11.62582,48.17165,0],"engineType":"CE","exterior":"GOOD","fuel":50,"interior":"GOOD","name":"B-GO8586","smartPhoneRequired":true,"vin":"WDD1760121J515024"},{"address":"Artilleriestraße 17, 80636 München","coordinates":[11.53923,48.1574,0],"engineType":"CE","exterior":"GOOD","fuel":100,"interior":"GOOD","name":"B-GO4716","smartPhoneRequired":true,"vin":"WME4533421K071195"},{"address":"Fraunhoferstraße 17, 80469 München","coordinates":[11.57319,48.13018,0],"engineType":"CE","exterior":"GOOD","fuel":98,"interior":"GOOD","name":"B-GO8565","smartPhoneRequired":true,"vin":"WDD1760121J511359"},{"address":"Birnauer Str. 3-4, 80809 München","coordinates":[11.5656,48.17521,0],"engineType":"CE","exterior":"GOOD","fuel":36,"interior":"GOOD","name":"B-GO8578","smartPhoneRequired":true,"vin":"WDD1760121J515593"},{"address":"P20 Ebene 01 - Flughafen MUC, 85445 Oberding","coordinates":[11.78808,48.35196,0],"engineType":"CE","exterior":"GOOD","fuel":68,"interior":"GOOD","name":"B-GO8576","smartPhoneRequired":true,"vin":"WDD1760121J513230"},{"address":"P20 Ebene 01 - Flughafen MUC, 85445 Oberding","coordinates":[11.78808,48.35196,0],"engineType":"CE","exterior":"GOOD","fuel":96,"interior":"GOOD","name":"B-GO8575","smartPhoneRequired":true,"vin":"WDD1760121J514486"},{"address":"Ottostraße 21, 80333 München","coordinates":[11.57218,48.14331,0],"engineType":"CE","exterior":"GOOD","fuel":100,"interior":"GOOD","name":"B-GO8572","smartPhoneRequired":true,"vin":"WDD1760121J512079"},{"address":"St.-Martins-Platz 1, 81541 München","coordinates":[11.58795,48.117,0],"engineType":"CE","exterior":"GOOD","fuel":98,"interior":"GOOD","name":"B-GO8672","smartPhoneRequired":true,"vin":"WDC1569431J293393"},{"address":"Landsberger Str. 428-432, 81241 München","coordinates":[11.47498,48.1454,0],"engineType":"CE","exterior":"GOOD","fuel":40,"interior":"GOOD","name":"B-GO8570","smartPhoneRequired":true,"vin":"WDD1760121J511823"},{"address":"Thomas-Hauser-Straße 19, 81829 München","coordinates":[11.65101,48.13292,0],"engineType":"CE","exterior":"GOOD","fuel":24,"interior":"GOOD","name":"B-GO8569","smartPhoneRequired":true,"vin":"WDD1760121J511247"},{"address":"Pestalozzistraße 35, 80469 München","coordinates":[11.56729,48.12841,0],"engineType":"CE","exterior":"GOOD","fuel":20,"interior":"GOOD","name":"B-GO8566","smartPhoneRequired":true,"vin":"WDD1760121J513186"},{"address":"Georg-Wopfner-Straße 21, 80939 München","coordinates":[11.61339,48.19181,0],"engineType":"CE","exterior":"GOOD","fuel":78,"interior":"GOOD","name":"B-GO8564","smartPhoneRequired":true,"vin":"WDD1760121J511879"},{"address":"Nadistraße 3, 80809 München","coordinates":[11.5521,48.18191,0],"engineType":"CE","exterior":"GOOD","fuel":100,"interior":"GOOD","name":"B-GO8562","smartPhoneRequired":true,"vin":"WDD1760121J512377"},{"address":"P20 Ebene 01 - Flughafen MUC, 85445 Oberding","coordinates":[11.78808,48.35196,0],"engineType":"CE","exterior":"GOOD","fuel":94,"interior":"GOOD","name":"B-GO8561","smartPhoneRequired":true,"vin":"WDD1760121J510409"},{"address":"Karl-Schurz-Straße 21, 80634 München","coordinates":[11.52362,48.15028,0],"engineType":"CE","exterior":"GOOD","fuel":98,"interior":"GOOD","name":"B-GO8558","smartPhoneRequired":true,"vin":"WDD1760121J510444"},{"address":"Am Eisbach 3, 80538 München","coordinates":[11.6008,48.15496,0],"engineType":"CE","exterior":"GOOD","fuel":78,"interior":"GOOD","name":"B-GO8557","smartPhoneRequired":true,"vin":"WDD1760121J510411"},{"address":"Welfenstraße 23, 81541 München","coordinates":[11.59001,48.12236,0],"engineType":"CE","exterior":"GOOD","fuel":71,"interior":"GOOD","name":"B-GO4275","smartPhoneRequired":true,"vin":"WME4533421K063054"},{"address":"Forggenseestraße 12, 81539 München","coordinates":[11.59354,48.10768,0],"engineType":"CE","exterior":"GOOD","fuel":62,"interior":"GOOD","name":"B-GO8552","smartPhoneRequired":true,"vin":"WDD1760121J511026"},{"address":"Zamdorfer Str. 120, 81677 München","coordinates":[11.64657,48.13874,0],"engineType":"CE","exterior":"GOOD","fuel":22,"interior":"GOOD","name":"B-GO8551","smartPhoneRequired":true,"vin":"WDD1760121J511679"},{"address":"P20 Ebene 01 - Flughafen MUC, 85445 Oberding","coordinates":[11.78808,48.35196,0],"engineType":"CE","exterior":"GOOD","fuel":100,"interior":"GOOD","name":"B-GO3137","smartPhoneRequired":true,"vin":"WME4533421K037072"},{"address":"Werner-Schlierf-Straße 33, 81539 München","coordinates":[11.58061,48.10914,0],"engineType":"CE","exterior":"GOOD","fuel":46,"interior":"GOOD","name":"B-GO8545","smartPhoneRequired":true,"vin":"WDD1760121J511201"},{"address":"Friedenheimer Str. 139, 80686 München","coordinates":[11.50855,48.13082,0],"engineType":"CE","exterior":"GOOD","fuel":48,"interior":"GOOD","name":"B-GO8546","smartPhoneRequired":true,"vin":"WDD1760121J511432"},{"address":"Fallstraße 40, 81369 München","coordinates":[11.53943,48.10705,0],"engineType":"CE","exterior":"GOOD","fuel":38,"interior":"GOOD","name":"B-GO8548","smartPhoneRequired":true,"vin":"WDD1760121J512375"},{"address":"Dieselstraße 3, 85774 Unterföhring","coordinates":[11.65216,48.19009,0],"engineType":"CE","exterior":"GOOD","fuel":53,"interior":"GOOD","name":"B-GO3147","smartPhoneRequired":true,"vin":"WME4533421K037409"},{"address":"E54, 81371 München","coordinates":[11.55152,48.11238,0],"engineType":"CE","exterior":"GOOD","fuel":18,"interior":"GOOD","name":"B-GO3652","smartPhoneRequired":true,"vin":"WME4533421K036937"},{"address":"Kastenbauerstraße 2B, 81677 München","coordinates":[11.63965,48.13727,0],"engineType":"CE","exterior":"GOOD","fuel":59,"interior":"GOOD","name":"B-GO4749","smartPhoneRequired":true,"vin":"WME4533421K071176"},{"address":"P20 Ebene 01 - Flughafen MUC, 85445 Oberding","coordinates":[11.78808,48.35196,0],"engineType":"CE","exterior":"GOOD","fuel":30,"interior":"GOOD","name":"B-GO8544","smartPhoneRequired":true,"vin":"WDD1760121J510803"},{"address":"Friedastraße 27, 81479 München","coordinates":[11.52823,48.081,0],"engineType":"CE","exterior":"GOOD","fuel":43,"interior":"GOOD","name":"B-GO3694","smartPhoneRequired":true,"vin":"WME4533421K037024"},{"address":"Beethovenstraße 3, 80336 München","coordinates":[11.55714,48.13255,0],"engineType":"CE","exterior":"GOOD","fuel":75,"interior":"GOOD","name":"B-GO3481","smartPhoneRequired":true,"vin":"WME4533421K036526"},{"address":"Schwere-Reiter-Straße 35, 80797 München","coordinates":[11.55587,48.16241,0],"engineType":"CE","exterior":"GOOD","fuel":31,"interior":"GOOD","name":"B-GO4251","smartPhoneRequired":true,"vin":"WME4533421K063242"},{"address":"P20 Ebene 01 - Flughafen MUC, 85445 Oberding","coordinates":[11.78808,48.35196,0],"engineType":"CE","exterior":"GOOD","fuel":40,"interior":"GOOD","name":"B-GO4640","smartPhoneRequired":true,"vin":"WME4533421K072382"},{"address":"Hundesee, 80995 München","coordinates":[11.48049,48.19892,0],"engineType":"CE","exterior":"GOOD","fuel":96,"interior":"GOOD","name":"B-GO3577","smartPhoneRequired":true,"vin":"WME4533421K036707"},{"address":"Voßstraße 9-11, 81543 München","coordinates":[11.57452,48.11704,0],"engineType":"CE","exterior":"GOOD","fuel":37,"interior":"GOOD","name":"B-GO3117","smartPhoneRequired":true,"vin":"WME4533421K035859"},{"address":"P20 Ebene 01 - Flughafen MUC, 85445 Oberding","coordinates":[11.78808,48.35196,0],"engineType":"CE","exterior":"GOOD","fuel":12,"interior":"GOOD","name":"B-GO3525","smartPhoneRequired":true,"vin":"WME4533421K037588"},{"address":"Rümelinstraße 10, 81925 München","coordinates":[11.61749,48.16645,0],"engineType":"CE","exterior":"GOOD","fuel":100,"interior":"GOOD","name":"B-GO3686","smartPhoneRequired":true,"vin":"WME4533421K037847"},{"address":"Peter-Henlein-Straße 24, 81549 München","coordinates":[11.60365,48.10607,0],"engineType":"CE","exterior":"GOOD","fuel":100,"interior":"GOOD","name":"B-GO3641","smartPhoneRequired":true,"vin":"WME4533421K036070"},{"address":"P20 Ebene 01 - Flughafen MUC, 85445 Oberding","coordinates":[11.78808,48.35196,0],"engineType":"CE","exterior":"GOOD","fuel":12,"interior":"GOOD","name":"B-GO8542","smartPhoneRequired":true,"vin":"WDD1760121J510663"},{"address":"Alramstraße 12, 81371 München","coordinates":[11.54693,48.12121,0],"engineType":"CE","exterior":"GOOD","fuel":43,"interior":"GOOD","name":"B-GO3709","smartPhoneRequired":true,"vin":"WME4533421K037603"},{"address":"P20 Ebene 01 - Flughafen MUC, 85445 Oberding","coordinates":[11.78808,48.35196,0],"engineType":"CE","exterior":"GOOD","fuel":31,"interior":"GOOD","name":"B-GO3695","smartPhoneRequired":true,"vin":"WME4533421K038933"},{"address":"Truderinger Str. 89, 81673 München","coordinates":[11.63711,48.1324,0],"engineType":"CE","exterior":"GOOD","fuel":81,"interior":"GOOD","name":"B-GO3712","smartPhoneRequired":true,"vin":"WME4533421K038155"},{"address":"Sonnenstraße 24, 80331 München","coordinates":[11.56507,48.13549,0],"engineType":"CE","exterior":"GOOD","fuel":68,"interior":"GOOD","name":"B-GO3687","smartPhoneRequired":true,"vin":"WME4533421K036018"},{"address":"Hornstraße 20, 80797 München","coordinates":[11.56129,48.17012,0],"engineType":"CE","exterior":"GOOD","fuel":15,"interior":"GOOD","name":"B-GO3560","smartPhoneRequired":true,"vin":"WME4533421K036234"},{"address":"Imhofstraße 8, 80805 München","coordinates":[11.60036,48.16716,0],"engineType":"CE","exterior":"GOOD","fuel":100,"interior":"GOOD","name":"B-GO3600","smartPhoneRequired":true,"vin":"WME4533421K037789"},{"address":"Tumblingerstraße 21-23, 80337 München","coordinates":[11.55767,48.1258,0],"engineType":"CE","exterior":"GOOD","fuel":100,"interior":"GOOD","name":"B-GO4798","smartPhoneRequired":true,"vin":"WME4533421K074651"},{"address":"Berliner Str. 40, 80805 München","coordinates":[11.58777,48.17281,0],"engineType":"CE","exterior":"GOOD","fuel":53,"interior":"GOOD","name":"B-GO6928","smartPhoneRequired":true,"vin":"WME4533421K085670"},{"address":"Frankpl. 16, 80939 München","coordinates":[11.61328,48.1935,0],"engineType":"CE","exterior":"GOOD","fuel":100,"interior":"GOOD","name":"B-GO3504","smartPhoneRequired":true,"vin":"WME4533421K036487"},{"address":"Margarethe-Danzi-Straße 7, 80639 München","coordinates":[11.50177,48.14732,0],"engineType":"CE","exterior":"GOOD","fuel":93,"interior":"GOOD","name":"B-GO4294","smartPhoneRequired":true,"vin":"WME4533421K064750"},{"address":"Waisenhausstraße 20, 80637 München","coordinates":[11.53028,48.15858,0],"engineType":"CE","exterior":"GOOD","fuel":84,"interior":"GOOD","name":"B-GO4704","smartPhoneRequired":true,"vin":"WME4533421K070041"},{"address":"Balanstraße 123, 81549 München","coordinates":[11.60432,48.10659,0],"engineType":"CE","exterior":"GOOD","fuel":78,"interior":"GOOD","name":"B-GO3637","smartPhoneRequired":true,"vin":"WME4533421K035715"},{"address":"Untersbergstraße 52, 81539 München","coordinates":[11.58569,48.11034,0],"engineType":"CE","exterior":"GOOD","fuel":100,"interior":"GOOD","name":"B-GO3471","smartPhoneRequired":true,"vin":"WME4533421K035837"},{"address":"Karl-Hammerschmidt-Straße 49, 85609 Aschheim","coordinates":[11.68333,48.15206,0],"engineType":"CE","exterior":"GOOD","fuel":100,"interior":"GOOD","name":"B-GO3136","smartPhoneRequired":true,"vin":"WME4533421K037406"},{"address":"Sonnenstraße 21, 80331 München","coordinates":[11.56529,48.13601,0],"engineType":"CE","exterior":"GOOD","fuel":100,"interior":"GOOD","name":"B-GO3592","smartPhoneRequired":true,"vin":"WME4533421K036573"},{"address":"Zielstattstraße 147, 81379 München","coordinates":[11.51524,48.10238,0],"engineType":"CE","exterior":"GOOD","fuel":100,"interior":"GOOD","name":"B-GO3711","smartPhoneRequired":true,"vin":"WME4533421K038390"},{"address":"Colmarer Str. 1, 81379 München","coordinates":[11.53753,48.09575,0],"engineType":"CE","exterior":"GOOD","fuel":96,"interior":"GOOD","name":"B-GO3587","smartPhoneRequired":true,"vin":"WME4533421K036570"},{"address":"Renatastraße 59, 80639 München","coordinates":[11.52728,48.15428,0],"engineType":"CE","exterior":"GOOD","fuel":100,"interior":"GOOD","name":"B-GO3697","smartPhoneRequired":true,"vin":"WME4533421K039501"},{"address":"P20 Ebene 01 - Flughafen MUC, 85445 Oberding","coordinates":[11.78808,48.35196,0],"engineType":"CE","exterior":"GOOD","fuel":87,"interior":"GOOD","name":"B-GO4678","smartPhoneRequired":true,"vin":"WME4533421K069850"},{"address":"Asgardstraße 39, 81925 München","coordinates":[11.6202,48.15747,0],"engineType":"CE","exterior":"GOOD","fuel":56,"interior":"GOOD","name":"B-GO3512","smartPhoneRequired":true,"vin":"WME4533421K036909"},{"address":"Lindwurmstraße 2, 80337 München","coordinates":[11.56155,48.13104,0],"engineType":"CE","exterior":"GOOD","fuel":75,"interior":"GOOD","name":"B-GO4755","smartPhoneRequired":true,"vin":"WME4533421K071305"},{"address":"Kreillerstraße 59, 81673 München","coordinates":[11.64006,48.12663,0],"engineType":"CE","exterior":"GOOD","fuel":34,"interior":"GOOD","name":"B-GO3663","smartPhoneRequired":true,"vin":"WME4533421K037315"},{"address":"P20 Ebene 01 - Flughafen MUC, 85445 Oberding","coordinates":[11.78808,48.35196,0],"engineType":"CE","exterior":"GOOD","fuel":50,"interior":"GOOD","name":"B-GO5446","smartPhoneRequired":true,"vin":"WDC1569431J300145"},{"address":"Tumblingerstraße 21-23, 80337 München","coordinates":[11.55775,48.12579,0],"engineType":"CE","exterior":"GOOD","fuel":56,"interior":"GOOD","name":"B-GO3143","smartPhoneRequired":true,"vin":"WME4533421K037378"},{"address":"P20 Ebene 01 - Flughafen MUC, 85445 Oberding","coordinates":[11.78808,48.35196,0],"engineType":"CE","exterior":"GOOD","fuel":75,"interior":"GOOD","name":"B-GO4691","smartPhoneRequired":true,"vin":"WME4533421K071237"},{"address":"Ismaninger Str. 22-30, 81675 München","coordinates":[11.59895,48.1386,0],"engineType":"CE","exterior":"GOOD","fuel":92,"interior":"GOOD","name":"B-GO5430","smartPhoneRequired":true,"vin":"WDC1569121J295450"},{"address":"Christoph-Rapparini-Bogen 10, 80639 München","coordinates":[11.5062,48.14586,0],"engineType":"CE","exterior":"GOOD","fuel":100,"interior":"GOOD","name":"B-GO3689","smartPhoneRequired":true,"vin":"WME4533421K037620"},{"address":"Hermann-Lingg-Straße 14, 80336 München","coordinates":[11.5516,48.13773,0],"engineType":"CE","exterior":"GOOD","fuel":68,"interior":"GOOD","name":"B-GO4718","smartPhoneRequired":true,"vin":"WME4533421K071563"},{"address":"Richard-Strauss-Straße 73, 81679 München","coordinates":[11.61597,48.14635,0],"engineType":"CE","exterior":"GOOD","fuel":75,"interior":"GOOD","name":"B-GO4634","smartPhoneRequired":true,"vin":"WME4533421K071940"},{"address":"Sonnenstraße 21, 80331 München","coordinates":[11.56538,48.13592,0],"engineType":"CE","exterior":"GOOD","fuel":71,"interior":"GOOD","name":"B-GO4677","smartPhoneRequired":true,"vin":"WME4533421K069651"},{"address":"Zamdorfer Str. 80, 81677 München","coordinates":[11.63608,48.13828,0],"engineType":"CE","exterior":"GOOD","fuel":100,"interior":"GOOD","name":"B-GO3699","smartPhoneRequired":true,"vin":"WME4533421K038872"},{"address":"P20 Ebene 01 - Flughafen MUC, 85445 Oberding","coordinates":[11.78808,48.35196,0],"engineType":"CE","exterior":"GOOD","fuel":100,"interior":"GOOD","name":"B-GO4277","smartPhoneRequired":true,"vin":"WME4533421K063272"},{"address":"Fischartstraße 16, 80686 München","coordinates":[11.50397,48.12973,0],"engineType":"CE","exterior":"GOOD","fuel":16,"interior":"GOOD","name":"B-GO8647","smartPhoneRequired":true,"vin":"WDC1569121J294067"},{"address":"Adalperostraße 29, 85737 Ismaning","coordinates":[11.68293,48.22942,0],"engineType":"CE","exterior":"GOOD","fuel":100,"interior":"GOOD","name":"B-GO3635","smartPhoneRequired":true,"vin":"WME4533421K036557"},{"address":"Dudenstraße 5, 81369 München","coordinates":[11.53917,48.11428,0],"engineType":"CE","exterior":"GOOD","fuel":56,"interior":"GOOD","name":"B-GO3144","smartPhoneRequired":true,"vin":"WME4533421K035391"},{"address":"Campeon Neubiberg","coordinates":[11.61288,48.08081,0],"engineType":"CE","exterior":"GOOD","fuel":50,"interior":"GOOD","name":"B-GO4757","smartPhoneRequired":true,"vin":"WME4533421K072092"},{"address":"Gollierpl. 5, 80339 München","coordinates":[11.53486,48.13612,0],"engineType":"CE","exterior":"GOOD","fuel":82,"interior":"GOOD","name":"B-GO5428","smartPhoneRequired":true,"vin":"WDC1569121J293993"},{"address":"Engasserbogen 16, 80639 München","coordinates":[11.51232,48.14623,0],"engineType":"CE","exterior":"GOOD","fuel":71,"interior":"GOOD","name":"B-GO4787","smartPhoneRequired":true,"vin":"WME4533421K071451"},{"address":"Karl-Hammerschmidt-Straße 49, 85609 Aschheim","coordinates":[11.68347,48.15212,0],"engineType":"CE","exterior":"GOOD","fuel":100,"interior":"GOOD","name":"B-GO3223","smartPhoneRequired":true,"vin":"WME4533421K036388"},{"address":"Arnulfstraße 8, 80335 München","coordinates":[11.55878,48.14163,0],"engineType":"CE","exterior":"GOOD","fuel":100,"interior":"GOOD","name":"B-GO4786","smartPhoneRequired":true,"vin":"WME4533421K071598"},{"address":"Schießstättstraße 22, 80339 München","coordinates":[11.54564,48.13618,0],"engineType":"CE","exterior":"GOOD","fuel":46,"interior":"GOOD","name":"B-GO4637","smartPhoneRequired":true,"vin":"WME4533421K072690"},{"address":"P20 Ebene 01 - Flughafen MUC, 85445 Oberding","coordinates":[11.78808,48.35196,0],"engineType":"CE","exterior":"GOOD","fuel":68,"interior":"GOOD","name":"B-GO4657","smartPhoneRequired":true,"vin":"WME4533421K071135"},{"address":"Veldener Str. 71, 81241 München","coordinates":[11.4796,48.14468,0],"engineType":"CE","exterior":"GOOD","fuel":68,"interior":"GOOD","name":"B-GO3544","smartPhoneRequired":true,"vin":"WME4533421K037634"},{"address":"Ernst-Curtius-Weg, 80809 München","coordinates":[11.54475,48.17527,0],"engineType":"CE","exterior":"GOOD","fuel":31,"interior":"GOOD","name":"B-GO3558","smartPhoneRequired":true,"vin":"WME4533421K037715"},{"address":"P20 Ebene 01 - Flughafen MUC, 85445 Oberding","coordinates":[11.78808,48.35196,0],"engineType":"CE","exterior":"GOOD","fuel":78,"interior":"GOOD","name":"B-GO3595","smartPhoneRequired":true,"vin":"WME4533421K036782"},{"address":"Gotzinger Str. 46, 81371 München","coordinates":[11.55033,48.11932,0],"engineType":"CE","exterior":"GOOD","fuel":21,"interior":"GOOD","name":"B-GO4291","smartPhoneRequired":true,"vin":"WME4533421K063878"},{"address":"P20 Ebene 01 - Flughafen MUC, 85445 Oberding","coordinates":[11.78808,48.35196,0],"engineType":"CE","exterior":"GOOD","fuel":40,"interior":"GOOD","name":"B-GO8597","smartPhoneRequired":true,"vin":"WDD1760431J511708"},{"address":"Ariboweg 30, 81673 München","coordinates":[11.6387,48.12938,0],"engineType":"CE","exterior":"GOOD","fuel":90,"interior":"GOOD","name":"B-GO3596","smartPhoneRequired":true,"vin":"WME4533421K037776"},{"address":"Morassistraße 24, 80469 München","coordinates":[11.58194,48.13156,0],"engineType":"CE","exterior":"GOOD","fuel":65,"interior":"GOOD","name":"B-GO3578","smartPhoneRequired":true,"vin":"WME4533421K035993"},{"address":"Neherstraße 3, 81675 München","coordinates":[11.60257,48.13913,0],"engineType":"CE","exterior":"GOOD","fuel":62,"interior":"GOOD","name":"B-GO3599","smartPhoneRequired":true,"vin":"WME4533421K036073"},{"address":"Haydnstraße 9-11, 80336 München","coordinates":[11.55676,48.13104,0],"engineType":"CE","exterior":"GOOD","fuel":43,"interior":"GOOD","name":"B-GO3571","smartPhoneRequired":true,"vin":"WME4533421K036413"},{"address":"Ridlerstraße 34, 80339 München","coordinates":[11.53517,48.13253,0],"engineType":"CE","exterior":"GOOD","fuel":37,"interior":"GOOD","name":"B-GO4647","smartPhoneRequired":true,"vin":"WME4533421K070549"},{"address":"Arnulfstraße 52, 80335 München","coordinates":[11.55133,48.14307,0],"engineType":"CE","exterior":"GOOD","fuel":82,"interior":"GOOD","name":"B-GO8649","smartPhoneRequired":true,"vin":"WDC1569121J295786"},{"address":"Peter-Henlein-Straße 24, 81549 München","coordinates":[11.60421,48.10617,0],"engineType":"CE","exterior":"GOOD","fuel":65,"interior":"GOOD","name":"B-GO3467","smartPhoneRequired":true,"vin":"WME4533421K037206"},{"address":"Linzer Str. 8, 81241 München","coordinates":[11.47708,48.14339,0],"engineType":"CE","exterior":"GOOD","fuel":87,"interior":"GOOD","name":"B-GO3706","smartPhoneRequired":true,"vin":"WME4533421K036403"},{"address":"Goethestraße 68, 80336 München","coordinates":[11.55852,48.13175,0],"engineType":"CE","exterior":"GOOD","fuel":100,"interior":"GOOD","name":"B-GO3530","smartPhoneRequired":true,"vin":"WME4533421K037321"},{"address":"Regina-Ullmann-Straße 41, 81927 München","coordinates":[11.63796,48.17061,0],"engineType":"CE","exterior":"GOOD","fuel":100,"interior":"GOOD","name":"B-GO3714","smartPhoneRequired":true,"vin":"WME4533421K037720"},{"address":"Ganghoferstraße 70, 81373 München","coordinates":[11.5389,48.12978,0],"engineType":"CE","exterior":"GOOD","fuel":100,"interior":"GOOD","name":"B-GO8554","smartPhoneRequired":true,"vin":"WDD1760121J510686"},{"address":"Kesselbergstraße 22, 81539 München","coordinates":[11.58306,48.11312,0],"engineType":"CE","exterior":"GOOD","fuel":46,"interior":"GOOD","name":"B-GO3684","smartPhoneRequired":true,"vin":"WME4533421K036811"},{"address":"Langensalzastraße 31, 80807 München","coordinates":[11.58105,48.18682,0],"engineType":"CE","exterior":"GOOD","fuel":40,"interior":"GOOD","name":"B-GO4633","smartPhoneRequired":true,"vin":"WME4533421K072024"},{"address":"P20 Ebene 01 - Flughafen MUC, 85445 Oberding","coordinates":[11.78808,48.35196,0],"engineType":"CE","exterior":"GOOD","fuel":30,"interior":"GOOD","name":"B-GO8662","smartPhoneRequired":true,"vin":"WDC1569431J294718"},{"address":"Tumblingerstraße 6-10, 80337 München","coordinates":[11.5604,48.12751,0],"engineType":"CE","exterior":"GOOD","fuel":12,"interior":"GOOD","name":"B-GO3640","smartPhoneRequired":true,"vin":"WME4533421K037695"},{"address":"Ruffinistraße 1-5, 80637 München","coordinates":[11.53198,48.1568,0],"engineType":"CE","exterior":"GOOD","fuel":46,"interior":"GOOD","name":"B-GO3623","smartPhoneRequired":true,"vin":"WME4533421K035719"},{"address":"P20 Ebene 01 - Flughafen MUC, 85445 Oberding","coordinates":[11.78808,48.35196,0],"engineType":"CE","exterior":"GOOD","fuel":21,"interior":"GOOD","name":"B-GO3508","smartPhoneRequired":true,"vin":"WME4533421K035439"},{"address":"Otl-Aicher-Straße 15, 80807 München","coordinates":[11.5889,48.18239,0],"engineType":"CE","exterior":"GOOD","fuel":100,"interior":"GOOD","name":"B-GO3639","smartPhoneRequired":true,"vin":"WME4533421K036156"},{"address":"P20 Ebene 01 - Flughafen MUC, 85445 Oberding","coordinates":[11.78808,48.35196,0],"engineType":"CE","exterior":"GOOD","fuel":25,"interior":"GOOD","name":"B-GO4290","smartPhoneRequired":true,"vin":"WME4533421K064622"},{"address":"Paulsdorfferstraße 4-6, 81549 München","coordinates":[11.6016,48.10757,0],"engineType":"CE","exterior":"GOOD","fuel":100,"interior":"GOOD","name":"B-GO3605","smartPhoneRequired":true,"vin":"WME4533421K036534"},{"address":"Drygalski-Allee 15, 81477 München","coordinates":[11.50657,48.09637,0],"engineType":"CE","exterior":"GOOD","fuel":53,"interior":"GOOD","name":"B-GO3124","smartPhoneRequired":true,"vin":"WME4533421K036711"},{"address":"Thalkirchner Str. 270A, 81371 München","coordinates":[11.54534,48.1078,0],"engineType":"CE","exterior":"GOOD","fuel":62,"interior":"GOOD","name":"B-GO4797","smartPhoneRequired":true,"vin":"WME4533421K072458"},{"address":"Rosenheimer Str. 138, 81669 München","coordinates":[11.60807,48.11934,0],"engineType":"CE","exterior":"GOOD","fuel":21,"interior":"GOOD","name":"B-GO3627","smartPhoneRequired":true,"vin":"WME4533421K035854"},{"address":"Westendstraße 146-148, 80339 München","coordinates":[11.53012,48.13774,0],"engineType":"CE","exterior":"GOOD","fuel":84,"interior":"GOOD","name":"B-GO3633","smartPhoneRequired":true,"vin":"WME4533421K036017"},{"address":"Schmalkaldener Str. 14, 80807 München","coordinates":[11.57779,48.18703,0],"engineType":"CE","exterior":"GOOD","fuel":78,"interior":"GOOD","name":"B-GO4654","smartPhoneRequired":true,"vin":"WME4533421K070472"},{"address":"Ennslandstraße 7, 81241 München","coordinates":[11.48022,48.14316,0],"engineType":"CE","exterior":"GOOD","fuel":34,"interior":"GOOD","name":"B-GO3621","smartPhoneRequired":true,"vin":"WME4533421K035714"},{"address":"Klenzestraße 72-74, 80469 München","coordinates":[11.57002,48.12675,0],"engineType":"CE","exterior":"GOOD","fuel":100,"interior":"GOOD","name":"B-GO4269","smartPhoneRequired":true,"vin":"WME4533421K064202"},{"address":"Weinbergerstraße 92, 81241 München","coordinates":[11.46,48.14051,0],"engineType":"CE","exterior":"GOOD","fuel":100,"interior":"GOOD","name":"B-GO3462","smartPhoneRequired":true,"vin":"WME4533421K036822"},{"address":"Campeon Neubiberg","coordinates":[11.61288,48.08081,0],"engineType":"CE","exterior":"GOOD","fuel":75,"interior":"GOOD","name":"B-GO4641","smartPhoneRequired":true,"vin":"WME4533421K072613"},{"address":"Schleißheimer Str. 278, 80809 München","coordinates":[11.56806,48.17557,0],"engineType":"CE","exterior":"GOOD","fuel":100,"interior":"GOOD","name":"B-GO4762","smartPhoneRequired":true,"vin":"WME4533421K072277"},{"address":"Seidlhofstraße 20, 80639 München","coordinates":[11.51845,48.14748,0],"engineType":"CE","exterior":"GOOD","fuel":87,"interior":"GOOD","name":"B-GO3563","smartPhoneRequired":true,"vin":"WME4533421K037420"},{"address":"Arnulfstraße 9-11, 80335 München","coordinates":[11.55488,48.14208,0],"engineType":"CE","exterior":"GOOD","fuel":50,"interior":"GOOD","name":"B-GO4650","smartPhoneRequired":true,"vin":"WME4533421K070261"},{"address":"Josef-Lang-Straße 12, 81245 München","coordinates":[11.47175,48.15106,0],"engineType":"CE","exterior":"GOOD","fuel":100,"interior":"GOOD","name":"B-GO4688","smartPhoneRequired":true,"vin":"WME4533421K071286"},{"address":"Kagerstraße 9, 81669 München","coordinates":[11.60529,48.11004,0],"engineType":"CE","exterior":"GOOD","fuel":100,"interior":"GOOD","name":"B-GO3492","smartPhoneRequired":true,"vin":"WME4533421K036472"},{"address":"Richard-Strauss-Tunnel, 81679 München","coordinates":[11.61606,48.14638,0],"engineType":"CE","exterior":"GOOD","fuel":81,"interior":"GOOD","name":"B-GO4774","smartPhoneRequired":true,"vin":"WME4533421K070561"},{"address":"Clemensstraße 121, 80796 München","coordinates":[11.56563,48.16439,0],"engineType":"CE","exterior":"GOOD","fuel":96,"interior":"GOOD","name":"B-GO4807","smartPhoneRequired":true,"vin":"WME4533421K072879"},{"address":"Thalkirchner Str. 17, 80337 München","coordinates":[11.56229,48.12559,0],"engineType":"CE","exterior":"GOOD","fuel":48,"interior":"GOOD","name":"B-GO8579","smartPhoneRequired":true,"vin":"WDD1760121J515352"},{"address":"Lilienthalallee 40, 80939 München","coordinates":[11.61055,48.19821,0],"engineType":"CE","exterior":"GOOD","fuel":100,"interior":"GOOD","name":"B-GO3628","smartPhoneRequired":true,"vin":"WME4533421K036041"},{"address":"Bruderhofstraße 10-12, 81371 München","coordinates":[11.55056,48.11117,0],"engineType":"CE","exterior":"GOOD","fuel":65,"interior":"GOOD","name":"B-GO3459","smartPhoneRequired":true,"vin":"WME4533421K036878"},{"address":"Egmontstraße 4, 80809 München","coordinates":[11.56366,48.17259,0],"engineType":"CE","exterior":"GOOD","fuel":100,"interior":"GOOD","name":"B-GO3589","smartPhoneRequired":true,"vin":"WME4533421K037518"},{"address":"Ridlerstraße 60, 80339 München","coordinates":[11.53202,48.1344,0],"engineType":"CE","exterior":"GOOD","fuel":25,"interior":"GOOD","name":"B-GO3490","smartPhoneRequired":true,"vin":"WME4533421K035589"},{"address":"Frische Paradies Rd, 80337 München","coordinates":[11.55932,48.12364,0],"engineType":"CE","exterior":"GOOD","fuel":100,"interior":"GOOD","name":"B-GO3119","smartPhoneRequired":true,"vin":"WME4533421K036335"},{"address":"Am Eisbach 3, 80538 München","coordinates":[11.60051,48.15477,0],"engineType":"CE","exterior":"GOOD","fuel":50,"interior":"GOOD","name":"B-GO3622","smartPhoneRequired":true,"vin":"WME4533421K036980"},{"address":"Gutzkowstraße 5, 80686 München","coordinates":[11.50392,48.12841,0],"engineType":"CE","exterior":"GOOD","fuel":65,"interior":"GOOD","name":"B-GO4264","smartPhoneRequired":true,"vin":"WME4533421K064647"},{"address":"Infanteriestraße 14, 80797 München","coordinates":[11.55513,48.15965,0],"engineType":"CE","exterior":"GOOD","fuel":54,"interior":"GOOD","name":"B-GO8627","smartPhoneRequired":true,"vin":"WDD1760431J512804"},{"address":"Hiltenspergerstraße 35, 80798 München","coordinates":[11.56639,48.15889,0],"engineType":"CE","exterior":"GOOD","fuel":100,"interior":"GOOD","name":"B-GO4734","smartPhoneRequired":true,"vin":"WME4533421K069920"},{"address":"Haydnstraße 11, 80336 München","coordinates":[11.55658,48.13117,0],"engineType":"CE","exterior":"GOOD","fuel":43,"interior":"GOOD","name":"B-GO4261","smartPhoneRequired":true,"vin":"WME4533421K065297"},{"address":"Richelstraße 8, 80634 München","coordinates":[11.53483,48.14552,0],"engineType":"CE","exterior":"GOOD","fuel":93,"interior":"GOOD","name":"B-GO4287","smartPhoneRequired":true,"vin":"WME4533421K065471"},{"address":"Herzogspitalstraße 13B, 80331 München","coordinates":[11.56688,48.13792,0],"engineType":"CE","exterior":"GOOD","fuel":12,"interior":"GOOD","name":"B-GO3133","smartPhoneRequired":true,"vin":"WME4533421K036079"},{"address":"Wörthstraße 34, 81667 München","coordinates":[11.60132,48.12942,0],"engineType":"CE","exterior":"GOOD","fuel":90,"interior":"GOOD","name":"B-GO3458","smartPhoneRequired":true,"vin":"WME4533421K036373"},{"address":"Ohmstraße 5, 85609 Aschheim","coordinates":[11.68454,48.15258,0],"engineType":"CE","exterior":"GOOD","fuel":28,"interior":"GOOD","name":"B-GO4267","smartPhoneRequired":true,"vin":"WME4533421K064505"},{"address":"P20 Ebene 01 - Flughafen MUC, 85445 Oberding","coordinates":[11.78808,48.35196,0],"engineType":"CE","exterior":"GOOD","fuel":37,"interior":"GOOD","name":"B-GO3415","smartPhoneRequired":true,"vin":"WME4533421K036683"},{"address":"Hochstiftsweg 29, 81925 München","coordinates":[11.63149,48.1688,0],"engineType":"CE","exterior":"GOOD","fuel":12,"interior":"GOOD","name":"B-GO3522","smartPhoneRequired":true,"vin":"WME4533421K035475"},{"address":"Böhmerwaldpl. 8, 81679 München","coordinates":[11.61285,48.14364,0],"engineType":"CE","exterior":"GOOD","fuel":37,"interior":"GOOD","name":"B-GO3585","smartPhoneRequired":true,"vin":"WME4533421K036976"},{"address":"Gotzinger Str. 12, 81371 München","coordinates":[11.55024,48.12056,0],"engineType":"CE","exterior":"GOOD","fuel":100,"interior":"GOOD","name":"B-GO3646","smartPhoneRequired":true,"vin":"WME4533421K037215"},{"address":"Haydnstraße 11, 80336 München","coordinates":[11.55643,48.13132,0],"engineType":"CE","exterior":"GOOD","fuel":71,"interior":"GOOD","name":"B-GO3597","smartPhoneRequired":true,"vin":"WME4533421K036504"},{"address":"Anzinger Str. 13, 81671 München","coordinates":[11.60811,48.12103,0],"engineType":"CE","exterior":"GOOD","fuel":100,"interior":"GOOD","name":"B-GO3468","smartPhoneRequired":true,"vin":"WME4533421K036850"},{"address":"Stefan-Zweig-Weg 5, 81377 München","coordinates":[11.50274,48.10659,0],"engineType":"CE","exterior":"GOOD","fuel":90,"interior":"GOOD","name":"B-GO3150","smartPhoneRequired":true,"vin":"WME4533421K035547"},{"address":"Innere Wiener Straße 7, 81667 München","coordinates":[11.59267,48.13331,0],"engineType":"CE","exterior":"GOOD","fuel":62,"interior":"GOOD","name":"B-GO3582","smartPhoneRequired":true,"vin":"WME4533421K036662"},{"address":"Gaßnerstraße 16, 80639 München","coordinates":[11.50813,48.15473,0],"engineType":"CE","exterior":"GOOD","fuel":100,"interior":"GOOD","name":"B-GO3145","smartPhoneRequired":true,"vin":"WME4533421K037014"},{"address":"Ohmstraße 5, 85609 Aschheim","coordinates":[11.68299,48.15281,0],"engineType":"CE","exterior":"GOOD","fuel":100,"interior":"GOOD","name":"B-GO3130","smartPhoneRequired":true,"vin":"WME4533421K037144"},{"address":"St.-Martin-Straße 54, 81541 München","coordinates":[11.59405,48.11815,0],"engineType":"CE","exterior":"GOOD","fuel":40,"interior":"GOOD","name":"B-GO3657","smartPhoneRequired":true,"vin":"WME4533421K037029"},{"address":"Margaretenpl. 7-8, 81373 München","coordinates":[11.53964,48.1199,0],"engineType":"CE","exterior":"GOOD","fuel":100,"interior":"GOOD","name":"B-GO3619","smartPhoneRequired":true,"vin":"WME4533421K035666"},{"address":"P20 Ebene 01 - Flughafen MUC, 85445 Oberding","coordinates":[11.78808,48.35196,0],"engineType":"CE","exterior":"GOOD","fuel":68,"interior":"GOOD","name":"B-GO4745","smartPhoneRequired":true,"vin":"WME4533421K070141"},{"address":"Karlspl. 4, 80335 München","coordinates":[11.56608,48.1403,0],"engineType":"CE","exterior":"GOOD","fuel":100,"interior":"GOOD","name":"B-GO4768","smartPhoneRequired":true,"vin":"WME4533421K069971"},{"address":"Nigerstraße 2, 81675 München","coordinates":[11.60487,48.13752,0],"engineType":"CE","exterior":"GOOD","fuel":65,"interior":"GOOD","name":"B-GO4697","smartPhoneRequired":true,"vin":"WME4533421K069926"},{"address":"Hinterbärenbadstraße 15, 81373 München","coordinates":[11.52859,48.12044,0],"engineType":"CE","exterior":"GOOD","fuel":100,"interior":"GOOD","name":"B-GO3486","smartPhoneRequired":true,"vin":"WME4533421K035931"},{"address":"Roseggerstraße 13-15, 81245 München","coordinates":[11.47204,48.14885,0],"engineType":"CE","exterior":"GOOD","fuel":93,"interior":"GOOD","name":"B-GO3489","smartPhoneRequired":true,"vin":"WME4533421K037365"},{"address":"Carl-Zeiss-Ring 25, 85737 Ismaning","coordinates":[11.68129,48.23572,0],"engineType":"CE","exterior":"GOOD","fuel":100,"interior":"GOOD","name":"B-GO3604","smartPhoneRequired":true,"vin":"WME4533421K036804"},{"address":"P20 Ebene 01 - Flughafen MUC, 85445 Oberding","coordinates":[11.78808,48.35196,0],"engineType":"CE","exterior":"GOOD","fuel":52,"interior":"GOOD","name":"B-GO5437","smartPhoneRequired":true,"vin":"WDC1569121J293476"},{"address":"Tumblingerstraße 21-23, 80337 München","coordinates":[11.55722,48.12541,0],"engineType":"CE","exterior":"GOOD","fuel":50,"interior":"GOOD","name":"B-GO3511","smartPhoneRequired":true,"vin":"WME4533421K037699"},{"address":"Schlüsselbergstraße 3, 81673 München","coordinates":[11.62264,48.12915,0],"engineType":"CE","exterior":"GOOD","fuel":46,"interior":"GOOD","name":"B-GO4281","smartPhoneRequired":true,"vin":"WME4533421K063562"},{"address":"P20 Ebene 01 - Flughafen MUC, 85445 Oberding","coordinates":[11.78808,48.35196,0],"engineType":"CE","exterior":"GOOD","fuel":100,"interior":"GOOD","name":"B-GO3720","smartPhoneRequired":true,"vin":"WME4533421K037930"},{"address":"Frundsbergstraße 23, 80634 München","coordinates":[11.53482,48.15599,0],"engineType":"CE","exterior":"GOOD","fuel":31,"interior":"GOOD","name":"B-GO3539","smartPhoneRequired":true,"vin":"WME4533421K037099"},{"address":"P20 Ebene 01 - Flughafen MUC, 85445 Oberding","coordinates":[11.78808,48.35196,0],"engineType":"CE","exterior":"GOOD","fuel":34,"interior":"GOOD","name":"B-GO4292","smartPhoneRequired":true,"vin":"WME4533421K065280"},{"address":"Lessingstraße 5, 80336 München","coordinates":[11.55734,48.13363,0],"engineType":"CE","exterior":"GOOD","fuel":40,"interior":"GOOD","name":"B-GO3613","smartPhoneRequired":true,"vin":"WME4533421K036677"},{"address":"Lauchstädter Str. 11, 80807 München","coordinates":[11.57533,48.18849,0],"engineType":"CE","exterior":"GOOD","fuel":100,"interior":"GOOD","name":"B-GO3480","smartPhoneRequired":true,"vin":"WME4533421K036996"},{"address":"P20 Ebene 01 - Flughafen MUC, 85445 Oberding","coordinates":[11.78808,48.35196,0],"engineType":"CE","exterior":"GOOD","fuel":84,"interior":"GOOD","name":"B-GO3470","smartPhoneRequired":true,"vin":"WME4533421K035683"},{"address":"Georg-Böhmer-Straße 22, 81245 München","coordinates":[11.41227,48.15714,0],"engineType":"CE","exterior":"GOOD","fuel":87,"interior":"GOOD","name":"B-GO4760","smartPhoneRequired":true,"vin":"WME4533421K072145"},{"address":"Ganghoferstraße 46, 80339 München","coordinates":[11.53967,48.13275,0],"engineType":"CE","exterior":"GOOD","fuel":43,"interior":"GOOD","name":"B-GO4803","smartPhoneRequired":true,"vin":"WME4533421K072852"},{"address":"Siemensallee 74, 81379 München","coordinates":[11.5226,48.09053,0],"engineType":"CE","exterior":"GOOD","fuel":15,"interior":"GOOD","name":"B-GO3521","smartPhoneRequired":true,"vin":"WME4533421K036881"},{"address":"Carl-Wery-Straße 42, 81739 München","coordinates":[11.64493,48.08754,0],"engineType":"CE","exterior":"GOOD","fuel":25,"interior":"GOOD","name":"B-GO3634","smartPhoneRequired":true,"vin":"WME4533421K035883"},{"address":"Geibelstraße 2, 81679 München","coordinates":[11.60183,48.14207,0],"engineType":"CE","exterior":"GOOD","fuel":100,"interior":"GOOD","name":"B-GO3565","smartPhoneRequired":true,"vin":"WME4533421K036701"},{"address":"Werinherstraße 97A, 81541 München","coordinates":[11.59883,48.11519,0],"engineType":"CE","exterior":"GOOD","fuel":65,"interior":"GOOD","name":"B-GO3629","smartPhoneRequired":true,"vin":"WME4533421K037672"},{"address":"P20 Ebene 01 - Flughafen MUC, 85445 Oberding","coordinates":[11.78808,48.35196,0],"engineType":"CE","exterior":"GOOD","fuel":75,"interior":"GOOD","name":"B-GO3146","smartPhoneRequired":true,"vin":"WME4533421K035371"},{"address":"Plinganserstraße 64, 81369 München","coordinates":[11.53926,48.11366,0],"engineType":"CE","exterior":"GOOD","fuel":68,"interior":"GOOD","name":"B-GO4764","smartPhoneRequired":true,"vin":"WME4533421K072397"},{"address":"Oberföhringer Str. 151, 81925 München","coordinates":[11.62528,48.17125,0],"engineType":"CE","exterior":"GOOD","fuel":75,"interior":"GOOD","name":"B-GO4255","smartPhoneRequired":true,"vin":"WME4533421K063608"},{"address":"Arnulfstraße 9, 80335 München","coordinates":[11.55466,48.1422,0],"engineType":"CE","exterior":"GOOD","fuel":37,"interior":"GOOD","name":"B-GO3505","smartPhoneRequired":true,"vin":"WME4533421K036479"},{"address":"Kühbachstraße 10, 81543 München","coordinates":[11.57177,48.11634,0],"engineType":"CE","exterior":"GOOD","fuel":50,"interior":"GOOD","name":"B-GO3503","smartPhoneRequired":true,"vin":"WME4533421K036886"},{"address":"Centa-Herker-Bogen 80, 80797 München","coordinates":[11.55604,48.16739,0],"engineType":"CE","exterior":"GOOD","fuel":43,"interior":"GOOD","name":"B-GO4662","smartPhoneRequired":true,"vin":"WME4533421K071551"},{"address":"P20 Ebene 01 - Flughafen MUC, 85445 Oberding","coordinates":[11.78808,48.35196,0],"engineType":"CE","exterior":"GOOD","fuel":25,"interior":"GOOD","name":"B-GO3128","smartPhoneRequired":true,"vin":"WME4533421K036184"},{"address":"Dürrstraße 1, 80992 München","coordinates":[11.5327,48.17855,0],"engineType":"CE","exterior":"GOOD","fuel":25,"interior":"GOOD","name":"B-GO4652","smartPhoneRequired":true,"vin":"WME4533421K070092"},{"address":"Marlene-Dietrich-Straße 65, 80636 München","coordinates":[11.53862,48.14457,0],"engineType":"CE","exterior":"GOOD","fuel":18,"interior":"GOOD","name":"B-GO8669","smartPhoneRequired":true,"vin":"WDC1569431J294695"},{"address":"P20 Ebene 01 - Flughafen MUC, 85445 Oberding","coordinates":[11.78808,48.35196,0],"engineType":"CE","exterior":"GOOD","fuel":78,"interior":"GOOD","name":"B-GO4671","smartPhoneRequired":true,"vin":"WME4533421K072673"},{"address":"P20 Ebene 01 - Flughafen MUC, 85445 Oberding","coordinates":[11.78808,48.35196,0],"engineType":"CE","exterior":"GOOD","fuel":60,"interior":"GOOD","name":"B-GO8582","smartPhoneRequired":true,"vin":"WDD1760121J513469"},{"address":"Hundesee, 80995 München","coordinates":[11.48055,48.19893,0],"engineType":"CE","exterior":"GOOD","fuel":65,"interior":"GOOD","name":"B-GO4794","smartPhoneRequired":true,"vin":"WME4533421K072684"},{"address":"Hansastraße 68, 81373 München","coordinates":[11.53279,48.12893,0],"engineType":"CE","exterior":"GOOD","fuel":14,"interior":"GOOD","name":"B-GO8618","smartPhoneRequired":true,"vin":"WDD1760431J511414"},{"address":"P20 Ebene 01 - Flughafen MUC, 85445 Oberding","coordinates":[11.78808,48.35196,0],"engineType":"CE","exterior":"GOOD","fuel":31,"interior":"GOOD","name":"B-GO4800","smartPhoneRequired":true,"vin":"WME4533421K076213"},{"address":"Wolfratshauser Str. 216, 81479 München","coordinates":[11.52724,48.07993,0],"engineType":"CE","exterior":"GOOD","fuel":93,"interior":"GOOD","name":"B-GO3653","smartPhoneRequired":true,"vin":"WME4533421K035763"},{"address":"Karlstraße 96, 80335 München","coordinates":[11.55433,48.14689,0],"engineType":"CE","exterior":"GOOD","fuel":46,"interior":"GOOD","name":"B-GO4698","smartPhoneRequired":true,"vin":"WME4533421K069784"},{"address":"Drygalski-Allee 15, 81477 München","coordinates":[11.50668,48.09647,0],"engineType":"CE","exterior":"GOOD","fuel":100,"interior":"GOOD","name":"B-GO4758","smartPhoneRequired":true,"vin":"WME4533421K072197"},{"address":"Thomas-Hauser-Straße 19, 81829 München","coordinates":[11.65082,48.13282,0],"engineType":"CE","exterior":"GOOD","fuel":38,"interior":"GOOD","name":"B-GO8617","smartPhoneRequired":true,"vin":"WDD1760431J511962"},{"address":"Franz-von-Rinecker-Straße, 81379 München","coordinates":[11.55013,48.10511,0],"engineType":"CE","exterior":"GOOD","fuel":32,"interior":"GOOD","name":"B-GO5423","smartPhoneRequired":true,"vin":"WDC1569121J295270"},{"address":"P20 Ebene 01 - Flughafen MUC, 85445 Oberding","coordinates":[11.78808,48.35196,0],"engineType":"CE","exterior":"GOOD","fuel":30,"interior":"GOOD","name":"B-GO8580","smartPhoneRequired":true,"vin":"WDD1760121J515314"},{"address":"P20 Ebene 01 - Flughafen MUC, 85445 Oberding","coordinates":[11.78808,48.35196,0],"engineType":"CE","exterior":"GOOD","fuel":100,"interior":"GOOD","name":"B-GO3718","smartPhoneRequired":true,"vin":"WME4533421K038407"},{"address":"Beethovenstraße 6, 80336 München","coordinates":[11.5572,48.13261,0],"engineType":"CE","exterior":"GOOD","fuel":90,"interior":"GOOD","name":"B-GO4253","smartPhoneRequired":true,"vin":"WME4533421K063377"},{"address":"Kistlerhofstraße 124B, 81379 München","coordinates":[11.51662,48.09448,0],"engineType":"CE","exterior":"GOOD","fuel":82,"interior":"GOOD","name":"B-GO8547","smartPhoneRequired":true,"vin":"WDD1760121J510938"},{"address":"Trojanostraße, 80639 München","coordinates":[11.51896,48.15128,0],"engineType":"CE","exterior":"GOOD","fuel":44,"interior":"GOOD","name":"B-GO8568","smartPhoneRequired":true,"vin":"WDD1760121J510999"},{"address":"Kirchbachweg 7-10, 81479 München","coordinates":[11.52302,48.07886,0],"engineType":"CE","exterior":"GOOD","fuel":12,"interior":"GOOD","name":"B-GO4806","smartPhoneRequired":true,"vin":"WME4533421K073133"},{"address":"Franz-von-Rinecker-Straße, 81379 München","coordinates":[11.55001,48.10512,0],"engineType":"CE","exterior":"GOOD","fuel":66,"interior":"GOOD","name":"B-GO8638","smartPhoneRequired":true,"vin":"WDD1760431J514723"},{"address":"P20 Ebene 01 - Flughafen MUC, 85445 Oberding","coordinates":[11.78808,48.35196,0],"engineType":"CE","exterior":"GOOD","fuel":90,"interior":"GOOD","name":"B-GO5421","smartPhoneRequired":true,"vin":"WDC1569431J294128"},{"address":"Taunusstraße 38-40, 80807 München","coordinates":[11.57931,48.18889,0],"engineType":"CE","exterior":"GOOD","fuel":34,"interior":"GOOD","name":"B-GO4295","smartPhoneRequired":true,"vin":"WME4533421K065425"},{"address":"Kraelerstraße 6, 81373 München","coordinates":[11.54002,48.12449,0],"engineType":"CE","exterior":"GOOD","fuel":50,"interior":"GOOD","name":"B-GO4777","smartPhoneRequired":true,"vin":"WME4533421K070483"},{"address":"Elisenstraße 3, 80335 München","coordinates":[11.5622,48.14184,0],"engineType":"CE","exterior":"GOOD","fuel":18,"interior":"GOOD","name":"B-GO3556","smartPhoneRequired":true,"vin":"WME4533421K036051"},{"address":"P20 Ebene 01 - Flughafen MUC, 85445 Oberding","coordinates":[11.78808,48.35196,0],"engineType":"CE","exterior":"GOOD","fuel":100,"interior":"GOOD","name":"B-GO3520","smartPhoneRequired":true,"vin":"WME4533421K035332"},{"address":"P20 Ebene 01 - Flughafen MUC, 85445 Oberding","coordinates":[11.78808,48.35196,0],"engineType":"CE","exterior":"GOOD","fuel":60,"interior":"GOOD","name":"B-GO8634","smartPhoneRequired":true,"vin":"WDD1760431J514438"},{"address":"Thalkirchner Str. 88, 80337 München","coordinates":[11.56202,48.1253,0],"engineType":"CE","exterior":"GOOD","fuel":100,"interior":"GOOD","name":"B-GO4646","smartPhoneRequired":true,"vin":"WME4533421K069884"},{"address":"P20 Ebene 01 - Flughafen MUC, 85445 Oberding","coordinates":[11.78808,48.35196,0],"engineType":"CE","exterior":"GOOD","fuel":16,"interior":"GOOD","name":"B-GO8645","smartPhoneRequired":true,"vin":"WDD1760431J513845"},{"address":"Edmund-Rumpler-Straße 7, 80939 München","coordinates":[11.61097,48.19448,0],"engineType":"CE","exterior":"GOOD","fuel":90,"interior":"GOOD","name":"B-GO3460","smartPhoneRequired":true,"vin":"WME4533421K037434"},{"address":"Piuspl. 7, 81671 München","coordinates":[11.61652,48.12244,0],"engineType":"CE","exterior":"GOOD","fuel":78,"interior":"GOOD","name":"B-GO4262","smartPhoneRequired":true,"vin":"WME4533421K064632"},{"address":"Fliegenstraße 2, 80337 München","coordinates":[11.56525,48.13246,0],"engineType":"CE","exterior":"GOOD","fuel":59,"interior":"GOOD","name":"B-GO3690","smartPhoneRequired":true,"vin":"WME4533421K037606"},{"address":"Von-der-Pfordten-Straße 46, 80686 München","coordinates":[11.49542,48.13765,0],"engineType":"CE","exterior":"GOOD","fuel":98,"interior":"GOOD","name":"B-GO8648","smartPhoneRequired":true,"vin":"WDC1569121J295587"},{"address":"Robert-Bürkle-Straße 1, 85737 Ismaning","coordinates":[11.68655,48.22862,0],"engineType":"CE","exterior":"GOOD","fuel":65,"interior":"GOOD","name":"B-GO3494","smartPhoneRequired":true,"vin":"WME4533421K036220"},{"address":"Melusinenstraße 10, 81671 München","coordinates":[11.61217,48.12001,0],"engineType":"CE","exterior":"GOOD","fuel":68,"interior":"GOOD","name":"B-GO8574","smartPhoneRequired":true,"vin":"WDD1760121J514647"},{"address":"Görzer Str. 48, 81549 München","coordinates":[11.60741,48.10913,0],"engineType":"CE","exterior":"GOOD","fuel":37,"interior":"GOOD","name":"B-GO4782","smartPhoneRequired":true,"vin":"WME4533421K071055"}]}