{"placemarks":[{"address":"Am Glockenbach 14, 80469 München","coordinates":[11.56702,48.12656,0],"engineType":"CE","exterior":"GOOD","fuel":78,"interior":"GOOD","name":"B-GO4709","smartPhoneRequired":true,"vin":"WME4533421K070517"},{"address":"Mühlbaurstraße 2, 81677 München","coordinates":[11.60783,48.13999,0],"engineType":"CE","exterior":"GOOD","fuel":18,"interior":"GOOD","name":"B-GO8563","smartPhoneRequired":true,"vin":"WDD1760121J512387"},{"address":"Pariser Str. 35, 81667 München","coordinates":[11.60078,48.12886,0],"engineType":"CE","exterior":"GOOD","fuel":59,"interior":"GOOD","name":"B-GO4739","smartPhoneRequired":true,"vin":"WME4533421K070748"},{"address":"Ehrengutstraße 10, 80469 München","coordinates":[11.5594,48.12121,0],"engineType":"CE","exterior":"GOOD","fuel":65,"interior":"GOOD","name":"B-GO3717","smartPhoneRequired":true,"vin":"WME4533421K037924"},{"address":"Fritz-Meyer-Weg 33, 81925 München","coordinates":[11.63403,48.17189,0],"engineType":"CE","exterior":"GOOD","fuel":100,"interior":"GOOD","name":"B-GO3514","smartPhoneRequired":true,"vin":"WME4533421K036846"},{"address":"Falkensteinstraße 3-5, 81539 München","coordinates":[11.59285,48.10667,0],"engineType":"CE","exterior":"GOOD","fuel":65,"interior":"GOOD","name":"B-GO3678","smartPhoneRequired":true,"vin":"WME4533421K037512"},{"address":"Isabellastraße 43, 80796 München","coordinates":[11.57257,48.15948,0],"engineType":"CE","exterior":"GOOD","fuel":78,"interior":"GOOD","name":"B-GO4742","smartPhoneRequired":true,"vin":"WME4533421K070741"},{"address":"Leonrodstraße 85, 80636 München","coordinates":[11.54583,48.15871,0],"engineType":"CE","exterior":"GOOD","fuel":84,"interior":"GOOD","name":"B-GO3327","smartPhoneRequired":true,"vin":"WME4533421K036992"},{"address":"Kaulbachstraße 102, 80802 München","coordinates":[11.58676,48.15723,0],"engineType":"CE","exterior":"GOOD","fuel":59,"interior":"GOOD","name":"B-GO3567","smartPhoneRequired":true,"vin":"WME4533421K035351"},{"address":"Sonnenstraße 21, 80331 München","coordinates":[11.56546,48.13602,0],"engineType":"CE","exterior":"GOOD","fuel":71,"interior":"GOOD","name":"B-GO4747","smartPhoneRequired":true,"vin":"WME4533421K071160"},{"address":"Osterwaldstraße 29, 80805 München","coordinates":[11.59918,48.16552,0],"engineType":"CE","exterior":"GOOD","fuel":46,"interior":"GOOD","name":"B-GO3474","smartPhoneRequired":true,"vin":"WME4533421K036732"},{"address":"Cosimastraße 10, 81927 München","coordinates":[11.62983,48.15593,0],"engineType":"CE","exterior":"GOOD","fuel":100,"interior":"GOOD","name":"B-GO4694","smartPhoneRequired":true,"vin":"WME4533421K071704"},{"address":"P20 Ebene 01 - Flughafen MUC, 85445 Oberding","coordinates":[11.78808,48.35196,0],"engineType":"CE","exterior":"GOOD","fuel":37,"interior":"GOOD","name":"B-GO3607","smartPhoneRequired":true,"vin":"WME4533421K036756"},{"address":"Thomas-Wimmer-Ring 3, 80539 München","coordinates":[11.58305,48.1353,0],"engineType":"CE","exterior":"GOOD","fuel":65,"interior":"GOOD","name":"B-GO4643","smartPhoneRequired":true,"vin":"WME4533421K069794"},{"address":"Sandrartstraße 17, 80687 München","coordinates":[11.50748,48.14086,0],"engineType":"CE","exterior":"GOOD","fuel":46,"interior":"GOOD","name":"B-GO3624","smartPhoneRequired":true,"vin":"WME4533421K036837"},{"address":"Pfeuferstraße 1, 81373 München","coordinates":[11.53982,48.12698,0],"engineType":"CE","exterior":"GOOD","fuel":46,"interior":"GOOD","name":"B-GO3513","smartPhoneRequired":true,"vin":"WME4533421K037325"},{"address":"Vollmannstraße 53C, 81925 München","coordinates":[11.62896,48.15199,0],"engineType":"CE","exterior":"GOOD","fuel":50,"interior":"GOOD","name":"B-GO4775","smartPhoneRequired":true,"vin":"WME4533421K070173"},{"address":"Agnes-Bernauer-Straße 220, 81241 München","coordinates":[11.47889,48.14198,0],"engineType":"CE","exterior":"GOOD","fuel":100,"interior":"GOOD","name":"B-GO4723","smartPhoneRequired":true,"vin":"WME4533421K071809"},{"address":"Schwedenstraße 52, 80805 München","coordinates":[11.60239,48.16737,0],"engineType":"CE","exterior":"GOOD","fuel":96,"interior":"GOOD","name":"B-GO4706","smartPhoneRequired":true,"vin":"WME4533421K070061"},{"address":"Infanteriestraße 16C, 80797 München","coordinates":[11.55456,48.16013,0],"engineType":"CE","exterior":"GOOD","fuel":34,"interior":"GOOD","name":"B-GO4741","smartPhoneRequired":true,"vin":"WME4533421K070434"},{"address":"Bergmannstraße 20A, 80339 München","coordinates":[11.53766,48.13767,0],"engineType":"CE","exterior":"GOOD","fuel":53,"interior":"GOOD","name":"B-GO3676","smartPhoneRequired":true,"vin":"WME4533421K037745"},{"address":"Wallbergstraße 22, 81539 München","coordinates":[11.59711,48.10867,0],"engineType":"CE","exterior":"GOOD","fuel":37,"interior":"GOOD","name":"B-GO3469","smartPhoneRequired":true,"vin":"WME4533421K035721"},{"address":"Simeonistraße 3, 80637 München","coordinates":[11.5298,48.16134,0],"engineType":"CE","exterior":"GOOD","fuel":81,"interior":"GOOD","name":"B-GO4765","smartPhoneRequired":true,"vin":"WME4533421K072465"},{"address":"Dieselstraße 10, 85774 Unterföhring","coordinates":[11.65069,48.18591,0],"engineType":"CE","exterior":"GOOD","fuel":18,"interior":"GOOD","name":"B-GO4767","smartPhoneRequired":true,"vin":"WME4533421K069759"},{"address":"Markomannenstraße 21, 81377 München","coordinates":[11.50531,48.10559,0],"engineType":"CE","exterior":"GOOD","fuel":100,"interior":"GOOD","name":"B-GO4687","smartPhoneRequired":true,"vin":"WME4533421K070574"},{"address":"Innere Wiener Straße 18, 81667 München","coordinates":[11.59319,48.13336,0],"engineType":"CE","exterior":"GOOD","fuel":50,"interior":"GOOD","name":"B-GO4727","smartPhoneRequired":true,"vin":"WME4533421K072703"},{"address":"Telramundstraße 4-6, 81925 München","coordinates":[11.6271,48.16089,0],"engineType":"CE","exterior":"GOOD","fuel":100,"interior":"GOOD","name":"B-GO3591","smartPhoneRequired":true,"vin":"WME4533421K035821"},{"address":"Rablstraße 27, 81669 München","coordinates":[11.59172,48.12745,0],"engineType":"CE","exterior":"GOOD","fuel":90,"interior":"GOOD","name":"B-GO3516","smartPhoneRequired":true,"vin":"WME4533421K036076"},{"address":"Brienner Str. 8, 80333 München","coordinates":[11.57606,48.14296,0],"engineType":"CE","exterior":"GOOD","fuel":100,"interior":"GOOD","name":"B-GO3698","smartPhoneRequired":true,"vin":"WME4533421K039370"},{"address":"Metzstraße 33, 81667 München","coordinates":[11.60067,48.13168,0],"engineType":"CE","exterior":"GOOD","fuel":100,"interior":"GOOD","name":"B-GO4713","smartPhoneRequired":true,"vin":"WME4533421K070128"},{"address":"Kirchbachweg 8-10, 81479 München","coordinates":[11.5231,48.07902,0],"engineType":"CE","exterior":"GOOD","fuel":100,"interior":"GOOD","name":"B-GO4770","smartPhoneRequired":true,"vin":"WME4533421K069629"},{"address":"Zschokkestraße 65, 80686 München","coordinates":[11.51052,48.13503,0],"engineType":"CE","exterior":"GOOD","fuel":100,"interior":"GOOD","name":"B-GO3531","smartPhoneRequired":true,"vin":"WME4533421K037065"},{"address":"Karlspl. 2, 80335 München","coordinates":[11.56593,48.14022,0],"engineType":"CE","exterior":"GOOD","fuel":100,"interior":"GOOD","name":"B-GO4699","smartPhoneRequired":true,"vin":"WME4533421K069661"},{"address":"Schillerstraße 32, 80336 München","coordinates":[11.56084,48.13605,0],"engineType":"CE","exterior":"GOOD","fuel":59,"interior":"GOOD","name":"B-GO4789","smartPhoneRequired":true,"vin":"WME4533421K071864"},{"address":"Seidlhofstraße 7, 80639 München","coordinates":[11.51942,48.14766,0],"engineType":"CE","exterior":"GOOD","fuel":56,"interior":"GOOD","name":"B-GO4696","smartPhoneRequired":true,"vin":"WME4533421K069961"},{"address":"Feldmochinger Str. 4, 80992 München","coordinates":[11.52108,48.17755,0],"engineType":"CE","exterior":"GOOD","fuel":100,"interior":"GOOD","name":"B-GO3546","smartPhoneRequired":true,"vin":"WME4533421K036753"},{"address":"Illingstraße, 81379 München","coordinates":[11.5232,48.1034,0],"engineType":"CE","exterior":"GOOD","fuel":40,"interior":"GOOD","name":"B-GO4690","smartPhoneRequired":true,"vin":"WME4533421K070953"},{"address":"Tegernseer Landstraße 203A, 81549 München","coordinates":[11.58259,48.10358,0],"engineType":"CE","exterior":"GOOD","fuel":81,"interior":"GOOD","name":"B-GO4681","smartPhoneRequired":true,"vin":"WME4533421K070243"},{"address":"Ruppertstraße 15-19, 80337 München","coordinates":[11.55049,48.12465,0],"engineType":"CE","exterior":"GOOD","fuel":12,"interior":"GOOD","name":"B-GO4289","smartPhoneRequired":true,"vin":"WME4533421K065496"},{"address":"Isartalstraße 43, 80469 München","coordinates":[11.56253,48.12154,0],"engineType":"CE","exterior":"GOOD","fuel":100,"interior":"GOOD","name":"B-GO4714","smartPhoneRequired":true,"vin":"WME4533421K071047"},{"address":"Schwere-Reiter-Straße 41, 80797 München","coordinates":[11.56076,48.16142,0],"engineType":"CE","exterior":"GOOD","fuel":46,"interior":"GOOD","name":"B-GO4666","smartPhoneRequired":true,"vin":"WME4533421K071330"},{"address":"Pixisstraße 1, 81679 München","coordinates":[11.6073,48.14968,0],"engineType":"CE","exterior":"GOOD","fuel":93,"interior":"GOOD","name":"B-GO3715","smartPhoneRequired":true,"vin":"WME4533421K038852"},{"address":"Auenstraße 106, 80469 München","coordinates":[11.56381,48.12116,0],"engineType":"CE","exterior":"GOOD","fuel":87,"interior":"GOOD","name":"B-GO4668","smartPhoneRequired":true,"vin":"WME4533421K071783"},{"address":"Odinstraße 22, 81925 München","coordinates":[11.62067,48.15747,0],"engineType":"CE","exterior":"GOOD","fuel":46,"interior":"GOOD","name":"B-GO4649","smartPhoneRequired":true,"vin":"WME4533421K070148"},{"address":"Senftlstraße 9, 81541 München","coordinates":[11.58835,48.12251,0],"engineType":"CE","exterior":"GOOD","fuel":18,"interior":"GOOD","name":"B-GO4642","smartPhoneRequired":true,"vin":"WME4533421K069621"},{"address":"Goethestraße 74, 80336 München","coordinates":[11.55833,48.13042,0],"engineType":"CE","exterior":"GOOD","fuel":100,"interior":"GOOD","name":"B-GO3548","smartPhoneRequired":true,"vin":"WME4533421K037007"},{"address":"Lindwurmstraße 137, 80337 München","coordinates":[11.55321,48.12692,0],"engineType":"CE","exterior":"GOOD","fuel":18,"interior":"GOOD","name":"B-GO4636","smartPhoneRequired":true,"vin":"WME4533421K072007"},{"address":"Wolfratshauser Str., 81479 München","coordinates":[11.52689,48.07828,0],"engineType":"CE","exterior":"GOOD","fuel":92,"interior":"GOOD","name":"B-GO8560","smartPhoneRequired":true,"vin":"WDD1760121J512338"},{"address":"Hundesee, 80995 München","coordinates":[11.48043,48.19894,0],"engineType":"CE","exterior":"GOOD","fuel":40,"interior":"GOOD","name":"B-GO4293","smartPhoneRequired":true,"vin":"WME4533421K064073"},{"address":"Landsberger Str. 162, 80687 München","coordinates":[11.52625,48.14069,0],"engineType":"CE","exterior":"GOOD","fuel":88,"interior":"GOOD","name":"B-GO8559","smartPhoneRequired":true,"vin":"WDD1760121J511763"},{"address":"Kesselbergstraße 2, 81539 München","coordinates":[11.57892,48.114,0],"engineType":"CE","exterior":"GOOD","fuel":62,"interior":"GOOD","name":"B-GO3702","smartPhoneRequired":true,"vin":"WME4533421K036418"},{"address":"Thalkirchner Str. 48, 80337 München","coordinates":[11.56477,48.12885,0],"engineType":"CE","exterior":"GOOD","fuel":100,"interior":"GOOD","name":"B-GO3609","smartPhoneRequired":true,"vin":"WME4533421K035706"},{"address":"Am Glockenbach 3-5, 80469 München","coordinates":[11.568,48.1265,0],"engineType":"CE","exterior":"GOOD","fuel":100,"interior":"GOOD","name":"B-GO3630","smartPhoneRequired":true,"vin":"WME4533421K036665"},{"address":"Carl-Zeiss-Ring 9, 85737 Ismaning","coordinates":[11.67876,48.23579,0],"engineType":"CE","exterior":"GOOD","fuel":100,"interior":"GOOD","name":"B-GO3647","smartPhoneRequired":true,"vin":"WME4533421K035690"},{"address":"Schellingstraße 126, 80798 München","coordinates":[11.56187,48.15439,0],"engineType":"CE","exterior":"GOOD","fuel":62,"interior":"GOOD","name":"B-GO4653","smartPhoneRequired":true,"vin":"WME4533421K070249"},{"address":"Wilhelm-Wagenfeld-Straße 4, 80807 München","coordinates":[11.59405,48.18239,0],"engineType":"CE","exterior":"GOOD","fuel":31,"interior":"GOOD","name":"B-GO4802","smartPhoneRequired":true,"vin":"WME4533421K073093"},{"address":"Treitschkestraße 2, 80992 München","coordinates":[11.52122,48.17711,0],"engineType":"CE","exterior":"GOOD","fuel":100,"interior":"GOOD","name":"B-GO3611","smartPhoneRequired":true,"vin":"WME4533421K036465"},{"address":"Dreimühlenstraße 1, 80469 München","coordinates":[11.56244,48.12249,0],"engineType":"CE","exterior":"GOOD","fuel":21,"interior":"GOOD","name":"B-GO4263","smartPhoneRequired":true,"vin":"WME4533421K064803"},{"address":"Odinstraße 18, 81925 München","coordinates":[11.62003,48.15759,0],"engineType":"CE","exterior":"GOOD","fuel":100,"interior":"GOOD","name":"B-GO4676","smartPhoneRequired":true,"vin":"WME4533421K069510"},{"address":"Aberlestraße 6, 81371 München","coordinates":[11.5454,48.12195,0],"engineType":"CE","exterior":"GOOD","fuel":65,"interior":"GOOD","name":"B-GO4265","smartPhoneRequired":true,"vin":"WME4533421K065391"},{"address":"Connollystraße 28, 80809 München","coordinates":[11.54752,48.18056,0],"engineType":"CE","exterior":"GOOD","fuel":100,"interior":"GOOD","name":"B-GO3673","smartPhoneRequired":true,"vin":"WME4533421K039837"},{"address":"Fallmerayerstraße 29, 80796 München","coordinates":[11.57129,48.16468,0],"engineType":"CE","exterior":"GOOD","fuel":62,"interior":"GOOD","name":"B-GO3618","smartPhoneRequired":true,"vin":"WME4533421K036108"},{"address":"Herzogstandstraße 26, 81539 München","coordinates":[11.58143,48.11261,0],"engineType":"CE","exterior":"GOOD","fuel":100,"interior":"GOOD","name":"B-GO3671","smartPhoneRequired":true,"vin":"WME4533421K037544"},{"address":"Dachauer Str. 112, 80636 München","coordinates":[11.54893,48.15832,0],"engineType":"CE","exterior":"GOOD","fuel":62,"interior":"GOOD","name":"B-GO4252","smartPhoneRequired":true,"vin":"WME4533421K063215"},{"address":"Lohstraße 30, 81543 München","coordinates":[11.57534,48.11547,0],"engineType":"CE","exterior":"GOOD","fuel":71,"interior":"GOOD","name":"B-GO4692","smartPhoneRequired":true,"vin":"WME4533421K071691"},{"address":"Tumblingerstraße 21-23, 80337 München","coordinates":[11.55702,48.12529,0],"engineType":"CE","exterior":"GOOD","fuel":100,"interior":"GOOD","name":"B-GO3586","smartPhoneRequired":true,"vin":"WME4533421K036311"},{"address":"P20 Ebene 01 - Flughafen MUC, 85445 Oberding","coordinates":[11.78808,48.35196,0],"engineType":"CE","exterior":"GOOD","fuel":21,"interior":"GOOD","name":"B-GO4249","smartPhoneRequired":true,"vin":"WME4533421K065116"},{"address":"Tumblingerstraße 21-23, 80337 München","coordinates":[11.55744,48.1256,0],"engineType":"CE","exterior":"GOOD","fuel":46,"interior":"GOOD","name":"B-GO4280","smartPhoneRequired":true,"vin":"WME4533421K063818"},{"address":"Bruderhofstraße 4, 81371 München","coordinates":[11.55066,48.11196,0],"engineType":"CE","exterior":"GOOD","fuel":12,"interior":"GOOD","name":"B-GO4270","smartPhoneRequired":true,"vin":"WME4533421K064089"},{"address":"Sappelstraße 36, 81369 München","coordinates":[11.52453,48.10816,0],"engineType":"CE","exterior":"GOOD","fuel":93,"interior":"GOOD","name":"B-GO4268","smartPhoneRequired":true,"vin":"WME4533421K065147"},{"address":"Implerstraße 17, 81371 München","coordinates":[11.54979,48.12228,0],"engineType":"CE","exterior":"GOOD","fuel":64,"interior":"GOOD","name":"B-GO8583","smartPhoneRequired":true,"vin":"WDD1760121J514886"},{"address":"Christoph-Probst-Straße 10, 80805 München","coordinates":[11.60962,48.18441,0],"engineType":"CE","exterior":"GOOD","fuel":31,"interior":"GOOD","name":"B-GO4266","smartPhoneRequired":true,"vin":"WME4533421K065483"},{"address":"Kiefersfeldener Str. 17, 81373 München","coordinates":[11.52977,48.11768,0],"engineType":"CE","exterior":"GOOD","fuel":12,"interior":"GOOD","name":"B-GO4271","smartPhoneRequired":true,"vin":"WME4533421K064103"},{"address":"Emmy-Noether-Straße 6, 80992 München","coordinates":[11.53085,48.17229,0],"engineType":"CE","exterior":"GOOD","fuel":68,"interior":"GOOD","name":"B-GO4715","smartPhoneRequired":true,"vin":"WME4533421K070948"},{"address":"Lindwurmstraße 131, 80337 München","coordinates":[11.55369,48.12707,0],"engineType":"CE","exterior":"GOOD","fuel":100,"interior":"GOOD","name":"B-GO4254","smartPhoneRequired":true,"vin":"WME4533421K063709"},{"address":"Korbinianstraße 2, 80807 München","coordinates":[11.57029,48.18003,0],"engineType":"CE","exterior":"GOOD","fuel":100,"interior":"GOOD","name":"B-GO3716","smartPhoneRequired":true,"vin":"WME4533421K039478"},{"address":"Wolfratshauser Str. 76, 81379 München","coordinates":[11.54128,48.09475,0],"engineType":"CE","exterior":"GOOD","fuel":32,"interior":"GOOD","name":"B-GO8656","smartPhoneRequired":true,"vin":"WDC1569431J294529"},{"address":"Orffstraße 2, 80634 München","coordinates":[11.53599,48.15594,0],"engineType":"CE","exterior":"GOOD","fuel":53,"interior":"GOOD","name":"B-GO4638","smartPhoneRequired":true,"vin":"WME4533421K072624"},{"address":"Kriemhildenstraße 30, 80639 München","coordinates":[11.51097,48.15179,0],"engineType":"CE","exterior":"GOOD","fuel":100,"interior":"GOOD","name":"B-GO3705","smartPhoneRequired":true,"vin":"WME4533421K039231"},{"address":"Daphnestraße 3, 81925 München","coordinates":[11.62548,48.14824,0],"engineType":"CE","exterior":"GOOD","fuel":100,"interior":"GOOD","name":"B-GO3616","smartPhoneRequired":true,"vin":"WME4533421K035759"},{"address":"Türkenstraße 58-60, 80799 München","coordinates":[11.57568,48.14982,0],"engineType":"CE","exterior":"GOOD","fuel":15,"interior":"GOOD","name":"B-GO3125","smartPhoneRequired":true,"vin":"WME4533421K037219"},{"address":"Kreillerstraße 24, 81673 München","coordinates":[11.63357,48.12745,0],"engineType":"CE","exterior":"GOOD","fuel":100,"interior":"GOOD","name":"B-GO3692","smartPhoneRequired":true,"vin":"WME4533421K038306"},{"address":"Gertrud-Grunow-Straße 20, 80807 München","coordinates":[11.59647,48.18428,0],"engineType":"CE","exterior":"GOOD","fuel":90,"interior":"GOOD","name":"B-GO3120","smartPhoneRequired":true,"vin":"WME4533421K037451"},{"address":"Schulstraße 40, 80634 München","coordinates":[11.53533,48.1488,0],"engineType":"CE","exterior":"GOOD","fuel":100,"interior":"GOOD","name":"B-GO3683","smartPhoneRequired":true,"vin":"WME4533421K037189"},{"address":"Arnulfstraße 9-11, 80335 München","coordinates":[11.55483,48.14211,0],"engineType":"CE","exterior":"GOOD","fuel":100,"interior":"GOOD","name":"B-GO3680","smartPhoneRequired":true,"vin":"WME4533421K038447"},{"address":"Trivastraße 19, 80637 München","coordinates":[11.54147,48.16129,0],"engineType":"CE","exterior":"GOOD","fuel":53,"interior":"GOOD","name":"B-GO3700","smartPhoneRequired":true,"vin":"WME4533421K039397"},{"address":"Josef-Lang-Straße 12, 81245 München","coordinates":[11.47183,48.15107,0],"engineType":"CE","exterior":"GOOD","fuel":100,"interior":"GOOD","name":"B-GO3594","smartPhoneRequired":true,"vin":"WME4533421K037371"},{"address":"P20 Ebene 01 - Flughafen MUC, 85445 Oberding","coordinates":[11.78808,48.35196,0],"engineType":"CE","exterior":"GOOD","fuel":15,"interior":"GOOD","name":"B-GO4645","smartPhoneRequired":true,"vin":"WME4533421K069806"},{"address":"Linprunstraße 44, 80335 München","coordinates":[11.55164,48.15084,0],"engineType":"CE","exterior":"GOOD","fuel":81,"interior":"GOOD","name":"B-GO3584","smartPhoneRequired":true,"vin":"WME4533421K036737"},{"address":"Hundesee, 80995 München","coordinates":[11.48051,48.19894,0],"engineType":"CE","exterior":"GOOD","fuel":92,"interior":"GOOD","name":"B-GO8666","smartPhoneRequired":true,"vin":"WDC1569431J294324"},{"address":"Oertlinweg 12, 81543 München","coordinates":[11.56197,48.10511,0],"engineType":"CE","exterior":"GOOD","fuel":100,"interior":"GOOD","name":"B-GO8593","smartPhoneRequired":true,"vin":"WDD1760431J513553"},{"address":"Herzogstraße 82, 80796 München","coordinates":[11.57285,48.16276,0],"engineType":"CE","exterior":"GOOD","fuel":100,"interior":"GOOD","name":"B-GO3574","smartPhoneRequired":true,"vin":"WME4533421K037010"},{"address":"Butlerstraße 1, 81671 München","coordinates":[11.6115,48.11891,0],"engineType":"CE","exterior":"GOOD","fuel":100,"interior":"GOOD","name":"B-GO3626","smartPhoneRequired":true,"vin":"WME4533421K036128"},{"address":"Gartenstraße 3, 80809 München","coordinates":[11.56262,48.17248,0],"engineType":"CE","exterior":"GOOD","fuel":75,"interior":"GOOD","name":"B-GO3555","smartPhoneRequired":true,"vin":"WME4533421K036706"},{"address":"Cuvilliésstraße 31, 81679 München","coordinates":[11.60636,48.14313,0],"engineType":"CE","exterior":"GOOD","fuel":36,"interior":"GOOD","name":"B-GO5445","smartPhoneRequired":true,"vin":"WDC1569431J300337"},{"address":"Robert-Bürkle-Straße 1, 85737 Ismaning","coordinates":[11.68656,48.22866,0],"engineType":"CE","exterior":"GOOD","fuel":12,"interior":"GOOD","name":"B-GO5444","smartPhoneRequired":true,"vin":"WDC1569431J300244"},{"address":"Widenmayerstraße 39, 80538 München","coordinates":[11.59568,48.14574,0],"engineType":"CE","exterior":"GOOD","fuel":50,"interior":"GOOD","name":"B-GO5442","smartPhoneRequired":true,"vin":"WDC1569431J300648"},{"address":"Possartstraße 7, 81679 München","coordinates":[11.60658,48.14072,0],"engineType":"CE","exterior":"GOOD","fuel":32,"interior":"GOOD","name":"B-GO5447","smartPhoneRequired":true,"vin":"WDC1569431J299729"},{"address":"Ichostraße 3, 81541 München","coordinates":[11.57852,48.1162,0],"engineType":"CE","exterior":"GOOD","fuel":42,"interior":"GOOD","name":"B-GO5435","smartPhoneRequired":true,"vin":"WDC1569121J296631"},{"address":"Walther-Meißner-Straße 4, 81369 München","coordinates":[11.53175,48.10998,0],"engineType":"CE","exterior":"GOOD","fuel":31,"interior":"GOOD","name":"B-GO4648","smartPhoneRequired":true,"vin":"WME4533421K070300"},{"address":"Ständlerstraße 20, 81549 München","coordinates":[11.60095,48.1037,0],"engineType":"CE","exterior":"GOOD","fuel":40,"interior":"GOOD","name":"B-GO5433","smartPhoneRequired":true,"vin":"WDC1569121J296159"},{"address":"Landsberger Str. 370, 80687 München","coordinates":[11.49109,48.14446,0],"engineType":"CE","exterior":"GOOD","fuel":46,"interior":"GOOD","name":"B-GO5427","smartPhoneRequired":true,"vin":"WDC1569121J296393"},{"address":"Schäftlarnstraße 88, 81371 München","coordinates":[11.55162,48.10975,0],"engineType":"CE","exterior":"GOOD","fuel":81,"interior":"GOOD","name":"B-GO3507","smartPhoneRequired":true,"vin":"WME4533421K037210"},{"address":"Bad-Schachener-Straße 31, 81671 München","coordinates":[11.61659,48.1207,0],"engineType":"CE","exterior":"GOOD","fuel":54,"interior":"GOOD","name":"B-GO8642","smartPhoneRequired":true,"vin":"WDD1760431J513671"},{"address":"Prinzregentenstraße 111, 81677 München","coordinates":[11.61147,48.13847,0],"engineType":"CE","exterior":"GOOD","fuel":78,"interior":"GOOD","name":"B-GO3541","smartPhoneRequired":true,"vin":"WME4533421K036857"},{"address":"Hippmannstraße 2, 80639 München","coordinates":[11.50795,48.15463,0],"engineType":"CE","exterior":"GOOD","fuel":87,"interior":"GOOD","name":"B-GO4801","smartPhoneRequired":true,"vin":"WME4533421K075929"},{"address":"Richard-Strauss-Tunnel, 81677 München","coordinates":[11.6148,48.13918,0],"engineType":"CE","exterior":"GOOD","fuel":56,"interior":"GOOD","name":"B-GO3498","smartPhoneRequired":true,"vin":"WME4533421K036819"},{"address":"Döllingerstraße 23, 80639 München","coordinates":[11.51463,48.1551,0],"engineType":"CE","exterior":"GOOD","fuel":100,"interior":"GOOD","name":"B-GO3527","smartPhoneRequired":true,"vin":"WME4533421K035514"},{"address":"Implerstraße 54-56, 81371 München","coordinates":[11.54823,48.11699,0],"engineType":"CE","exterior":"GOOD","fuel":60,"interior":"GOOD","name":"B-GO8671","smartPhoneRequired":true,"vin":"WDC1569431J294848"},{"address":"Schloßschmidstraße 5, 80639 München","coordinates":[11.51731,48.14672,0],"engineType":"CE","exterior":"GOOD","fuel":84,"interior":"GOOD","name":"B-GO3524","smartPhoneRequired":true,"vin":"WME4533421K035489"},{"address":"Dietrichstraße 6, 80637 München","coordinates":[11.53235,48.16898,0],"engineType":"CE","exterior":"GOOD","fuel":59,"interior":"GOOD","name":"B-GO3523","smartPhoneRequired":true,"vin":"WME4533421K036105"},{"address":"Am Nordring 30, 80807 München","coordinates":[11.59117,48.18876,0],"engineType":"CE","exterior":"GOOD","fuel":80,"interior":"GOOD","name":"B-GO8670","smartPhoneRequired":true,"vin":"WDC1569431J293303"},{"address":"Karl-Theodor-Straße 68, 80803 München","coordinates":[11.57674,48.16701,0],"engineType":"CE","exterior":"GOOD","fuel":78,"interior":"GOOD","name":"B-GO8663","smartPhoneRequired":true,"vin":"WDC1569431J294019"},{"address":"Barer Str. 49, 80799 München","coordinates":[11.57346,48.15191,0],"engineType":"CE","exterior":"GOOD","fuel":100,"interior":"GOOD","name":"B-GO3121","smartPhoneRequired":true,"vin":"WME4533421K036028"},{"address":"Schellingstraße 64-66, 80799 München","coordinates":[11.57144,48.15158,0],"engineType":"CE","exterior":"GOOD","fuel":90,"interior":"GOOD","name":"B-GO3540","smartPhoneRequired":true,"vin":"WME4533421K037298"},{"address":"Oskar-Messter-Straße 16, 85737 Ismaning","coordinates":[11.68043,48.23328,0],"engineType":"CE","exterior":"GOOD","fuel":28,"interior":"GOOD","name":"B-GO3122","smartPhoneRequired":true,"vin":"WME4533421K035889"},{"address":"Adams-Lehmann-Straße 73, 80797 München","coordinates":[11.56082,48.16214,0],"engineType":"CE","exterior":"GOOD","fuel":56,"interior":"GOOD","name":"B-GO4707","smartPhoneRequired":true,"vin":"WME4533421K070427"},{"address":"Heisenbergbogen 3, 85609 Aschheim","coordinates":[11.68417,48.15211,0],"engineType":"CE","exterior":"GOOD","fuel":60,"interior":"GOOD","name":"B-GO8664","smartPhoneRequired":true,"vin":"WDC1569431J293638"},{"address":"Hellabrunner Str. 30D, 81543 München","coordinates":[11.56512,48.11191,0],"engineType":"CE","exterior":"GOOD","fuel":12,"interior":"GOOD","name":"B-GO8661","smartPhoneRequired":true,"vin":"WDC1569431J294018"},{"address":"Grünwalder Str. 105A, 81547 München","coordinates":[11.56731,48.10138,0],"engineType":"CE","exterior":"GOOD","fuel":34,"interior":"GOOD","name":"B-GO3131","smartPhoneRequired":true,"vin":"WME4533421K037439"},{"address":"Luise-Kiesselbach-Platz 7, 81377 München","coordinates":[11.51916,48.11272,0],"engineType":"CE","exterior":"GOOD","fuel":15,"interior":"GOOD","name":"B-GO3497","smartPhoneRequired":true,"vin":"WME4533421K036946"},{"address":"Schießstättstraße 16, 80339 München","coordinates":[11.54582,48.1368,0],"engineType":"CE","exterior":"GOOD","fuel":66,"interior":"GOOD","name":"B-GO8660","smartPhoneRequired":true,"vin":"WDC1569431J294914"},{"address":"Osterfeldstraße 41, 85737 Ismaning","coordinates":[11.68853,48.23053,0],"engineType":"CE","exterior":"GOOD","fuel":100,"interior":"GOOD","name":"B-GO3493","smartPhoneRequired":true,"vin":"WME4533421K036264"},{"address":"Taimerhofstraße 7, 81927 München","coordinates":[11.63264,48.16652,0],"engineType":"CE","exterior":"GOOD","fuel":72,"interior":"GOOD","name":"B-GO8659","smartPhoneRequired":true,"vin":"WDC1569431J294081"},{"address":"Thomas-Wimmer-Ring 12, 80538 München","coordinates":[11.58332,48.13547,0],"engineType":"CE","exterior":"GOOD","fuel":100,"interior":"GOOD","name":"B-GO8658","smartPhoneRequired":true,"vin":"WDC1569431J294044"},{"address":"Thomas-Dehler-Straße 22, 81737 München","coordinates":[11.6448,48.09849,0],"engineType":"CE","exterior":"GOOD","fuel":54,"interior":"GOOD","name":"B-GO8657","smartPhoneRequired":true,"vin":"WDC1569431J294682"},{"address":"Listseeweg 1, 81379 München","coordinates":[11.51176,48.0995,0],"engineType":"CE","exterior":"GOOD","fuel":100,"interior":"GOOD","name":"B-GO3484","smartPhoneRequired":true,"vin":"WME4533421K036854"},{"address":"Farinellistraße 5-7, 80796 München","coordinates":[11.5655,48.16174,0],"engineType":"CE","exterior":"GOOD","fuel":100,"interior":"GOOD","name":"B-GO3681","smartPhoneRequired":true,"vin":"WME4533421K037332"},{"address":"Fritz-Meyer-Weg 49, 81925 München","coordinates":[11.63443,48.17239,0],"engineType":"CE","exterior":"GOOD","fuel":98,"interior":"GOOD","name":"B-GO8655","smartPhoneRequired":true,"vin":"WDC1569431J294701"},{"address":"Angererstraße 9, 80796 München","coordinates":[11.57236,48.16628,0],"engineType":"CE","exterior":"GOOD","fuel":22,"interior":"GOOD","name":"B-GO8654","smartPhoneRequired":true,"vin":"WDC1569121J294788"},{"address":"Thalkirchner Str. 149, 81371 München","coordinates":[11.54791,48.11088,0],"engineType":"CE","exterior":"GOOD","fuel":96,"interior":"GOOD","name":"B-GO8653","smartPhoneRequired":true,"vin":"WDC1569121J294297"},{"address":"Otto-Dischner-Weg 2, 81241 München","coordinates":[11.45803,48.14092,0],"engineType":"CE","exterior":"GOOD","fuel":18,"interior":"GOOD","name":"B-GO8651","smartPhoneRequired":true,"vin":"WDC1569121J294387"},{"address":"Steinstraße 24, 81667 München","coordinates":[11.59617,48.13307,0],"engineType":"CE","exterior":"GOOD","fuel":64,"interior":"GOOD","name":"B-GO8650","smartPhoneRequired":true,"vin":"WDC1569121J295376"},{"address":"Cosimastraße 204, 81927 München","coordinates":[11.6351,48.1697,0],"engineType":"CE","exterior":"GOOD","fuel":100,"interior":"GOOD","name":"B-GO3632","smartPhoneRequired":true,"vin":"WME4533421K037584"},{"address":"Mendelssohnstraße 5, 81245 München","coordinates":[11.46867,48.15055,0],"engineType":"CE","exterior":"GOOD","fuel":14,"interior":"GOOD","name":"B-GO8646","smartPhoneRequired":true,"vin":"WDD1760431J512619"},{"address":"Friedrich-Hebbel-Straße 6, 81369 München","coordinates":[11.52664,48.11205,0],"engineType":"CE","exterior":"GOOD","fuel":24,"interior":"GOOD","name":"B-GO8644","smartPhoneRequired":true,"vin":"WDD1760431J513743"},{"address":"Hinterbärenbadstraße 4, 81373 München","coordinates":[11.52972,48.1201,0],"engineType":"CE","exterior":"GOOD","fuel":18,"interior":"GOOD","name":"B-GO8643","smartPhoneRequired":true,"vin":"WDD1760431J514224"},{"address":"Pienzenauerstraße 158-160, 81925 München","coordinates":[11.6157,48.16585,0],"engineType":"CE","exterior":"GOOD","fuel":98,"interior":"GOOD","name":"B-GO8640","smartPhoneRequired":true,"vin":"WDD1760431J512296"},{"address":"Lamontstraße 1, 81679 München","coordinates":[11.60459,48.14005,0],"engineType":"CE","exterior":"GOOD","fuel":98,"interior":"GOOD","name":"B-GO8639","smartPhoneRequired":true,"vin":"WDD1760431J514646"},{"address":"Regina-Ullmann-Straße 4, 81927 München","coordinates":[11.63666,48.1699,0],"engineType":"CE","exterior":"GOOD","fuel":50,"interior":"GOOD","name":"B-GO8637","smartPhoneRequired":true,"vin":"WDD1760431J514585"},{"address":"Hochstraße 31, 81669 München","coordinates":[11.58683,48.12671,0],"engineType":"CE","exterior":"GOOD","fuel":30,"interior":"GOOD","name":"B-GO8636","smartPhoneRequired":true,"vin":"WDD1760431J513010"},{"address":"Naupliastraße 6, 81547 München","coordinates":[11.58023,48.09763,0],"engineType":"CE","exterior":"GOOD","fuel":28,"interior":"GOOD","name":"B-GO3149","smartPhoneRequired":true,"vin":"WME4533421K035688"},{"address":"Meglingerstraße 40, 81477 München","coordinates":[11.50588,48.09137,0],"engineType":"CE","exterior":"GOOD","fuel":100,"interior":"GOOD","name":"B-GO3547","smartPhoneRequired":true,"vin":"WME4533421K037254"},{"address":"Winzererstraße 97, 80797 München","coordinates":[11.56102,48.16959,0],"engineType":"CE","exterior":"GOOD","fuel":96,"interior":"GOOD","name":"B-GO8635","smartPhoneRequired":true,"vin":"WDD1760431J512949"},{"address":"Humboldtstraße 8, 85609 Aschheim","coordinates":[11.68335,48.15104,0],"engineType":"CE","exterior":"GOOD","fuel":100,"interior":"GOOD","name":"B-GO3461","smartPhoneRequired":true,"vin":"WME4533421K037260"},{"address":"Tumblingerstraße 17, 80337 München","coordinates":[11.55869,48.12647,0],"engineType":"CE","exterior":"GOOD","fuel":96,"interior":"GOOD","name":"B-GO3135","smartPhoneRequired":true,"vin":"WME4533421K035339"},{"address":"Von-der-Pfordten-Straße 36, 80686 München","coordinates":[11.49575,48.13896,0],"engineType":"CE","exterior":"GOOD","fuel":84,"interior":"GOOD","name":"B-GO8641","smartPhoneRequired":true,"vin":"WDD1760431J515386"},{"address":"Nördliche Auffahrtsallee 61, 80638 München","coordinates":[11.51407,48.15887,0],"engineType":"CE","exterior":"GOOD","fuel":20,"interior":"GOOD","name":"B-GO8633","smartPhoneRequired":true,"vin":"WDD1760431J514896"},{"address":"Sonnenstraße 19, 80331 München","coordinates":[11.56542,48.1362,0],"engineType":"CE","exterior":"GOOD","fuel":100,"interior":"GOOD","name":"B-GO3670","smartPhoneRequired":true,"vin":"WME4533421K036215"},{"address":"Tegernseer Landstraße 148, 81539 München","coordinates":[11.57833,48.10996,0],"engineType":"CE","exterior":"GOOD","fuel":96,"interior":"GOOD","name":"B-GO8632","smartPhoneRequired":true,"vin":"WDD1760431J513203"},{"address":"Rosenheimer Str. 15, 81667 München","coordinates":[11.59206,48.12989,0],"engineType":"CE","exterior":"GOOD","fuel":34,"interior":"GOOD","name":"B-GO8630","smartPhoneRequired":true,"vin":"WDD1760431J513607"},{"address":"Wolfratshauser Str., 81479 München","coordinates":[11.52702,48.07844,0],"engineType":"CE","exterior":"GOOD","fuel":98,"interior":"GOOD","name":"B-GO8631","smartPhoneRequired":true,"vin":"WDD1760431J513895"},{"address":"Thomas-Dehler-Straße 18, 81737 München","coordinates":[11.64551,48.09934,0],"engineType":"CE","exterior":"GOOD","fuel":64,"interior":"GOOD","name":"B-GO8629","smartPhoneRequired":true,"vin":"WDD1760431J512880"},{"address":"Neumarkter Str. 82A, 81673 München","coordinates":[11.62928,48.13098,0],"engineType":"CE","exterior":"GOOD","fuel":44,"interior":"GOOD","name":"B-GO8628","smartPhoneRequired":true,"vin":"WDD1760431J512874"},{"address":"Campeon Neubiberg","coordinates":[11.61288,48.08081,0],"engineType":"CE","exterior":"GOOD","fuel":22,"interior":"GOOD","name":"B-GO8626","smartPhoneRequired":true,"vin":"WDD1760431J514246"},{"address":"Perlacher Str. 125, 81539 München","coordinates":[11.59264,48.11051,0],"engineType":"CE","exterior":"GOOD","fuel":92,"interior":"GOOD","name":"B-GO8625","smartPhoneRequired":true,"vin":"WDD1760431J513870"},{"address":"Arnulfstraße 251, 80639 München","coordinates":[11.51776,48.1507,0],"engineType":"CE","exterior":"GOOD","fuel":94,"interior":"GOOD","name":"B-GO8624","smartPhoneRequired":true,"vin":"WDD1760431J513819"},{"address":"Agnes-Bernauer-Straße 81, 80687 München","coordinates":[11.50203,48.13965,0],"engineType":"CE","exterior":"GOOD","fuel":32,"interior":"GOOD","name":"B-GO8622","smartPhoneRequired":true,"vin":"WDD1760431J514705"},{"address":"Hackenstraße 10, 80331 München","coordinates":[11.56979,48.13629,0],"engineType":"CE","exterior":"GOOD","fuel":44,"interior":"GOOD","name":"B-GO8623","smartPhoneRequired":true,"vin":"WDD1760431J514858"},{"address":"Ständlerstraße 45, 81549 München","coordinates":[11.60471,48.1045,0],"engineType":"CE","exterior":"GOOD","fuel":24,"interior":"GOOD","name":"B-GO8621","smartPhoneRequired":true,"vin":"WDD1760431J513963"},{"address":"Schyrenstraße 2A, 81543 München","coordinates":[11.56988,48.12109,0],"engineType":"CE","exterior":"GOOD","fuel":38,"interior":"GOOD","name":"B-GO8620","smartPhoneRequired":true,"vin":"WDD1760431J514423"},{"address":"Maria-Theresia-Straße 19-20, 81675 München","coordinates":[11.59839,48.14268,0],"engineType":"CE","exterior":"GOOD","fuel":46,"interior":"GOOD","name":"B-GO8619","smartPhoneRequired":true,"vin":"WDD1760431J512929"},{"address":"Innere Wiener Straße 26, 81667 München","coordinates":[11.5942,48.13366,0],"engineType":"CE","exterior":"GOOD","fuel":100,"interior":"GOOD","name":"B-GO3693","smartPhoneRequired":true,"vin":"WME4533421K038007"},{"address":"Prinzregentenstraße 18, 80538 München","coordinates":[11.58652,48.14285,0],"engineType":"CE","exterior":"GOOD","fuel":59,"interior":"GOOD","name":"B-GO3649","smartPhoneRequired":true,"vin":"WME4533421K035681"},{"address":"Helene-Weber-Allee 18, 80637 München","coordinates":[11.54454,48.16293,0],"engineType":"CE","exterior":"GOOD","fuel":38,"interior":"GOOD","name":"B-GO8615","smartPhoneRequired":true,"vin":"WDD1760431J512747"},{"address":"Rappenseestraße 2, 81379 München","coordinates":[11.51399,48.10025,0],"engineType":"CE","exterior":"GOOD","fuel":58,"interior":"GOOD","name":"B-GO8614","smartPhoneRequired":true,"vin":"WDD1760431J511803"},{"address":"Freisinger Str. 40, 85737 Ismaning","coordinates":[11.67875,48.23586,0],"engineType":"CE","exterior":"GOOD","fuel":38,"interior":"GOOD","name":"B-GO8613","smartPhoneRequired":true,"vin":"WDD1760431J513687"},{"address":"Otto-Hahn-Ring, 81739 München","coordinates":[11.65288,48.0918,0],"engineType":"CE","exterior":"GOOD","fuel":96,"interior":"GOOD","name":"B-GO8612","smartPhoneRequired":true,"vin":"WDD1760431J514091"},{"address":"Heßstraße, 80797 München","coordinates":[11.55124,48.16024,0],"engineType":"CE","exterior":"GOOD","fuel":34,"interior":"GOOD","name":"B-GO8611","smartPhoneRequired":true,"vin":"WDD1760431J513804"},{"address":"Fraunhoferstr. 30F, 80469 München","coordinates":[11.59139,48.10968,0],"engineType":"CE","exterior":"GOOD","fuel":18,"interior":"GOOD","name":"B-GO8608","smartPhoneRequired":true,"vin":"WDD1760431J514629"},{"address":"Walther-Meißner-Straße 8, 81369 München","coordinates":[11.53224,48.11006,0],"engineType":"CE","exterior":"GOOD","fuel":56,"interior":"GOOD","name":"B-GO8610","smartPhoneRequired":true,"vin":"WDD1760431J515973"},{"address":"Philipp-Loewenfeld-Straße 43, 80339 München","coordinates":[11.53852,48.14046,0],"engineType":"CE","exterior":"GOOD","fuel":92,"interior":"GOOD","name":"B-GO8605","smartPhoneRequired":true,"vin":"WDD1760431J515082"},{"address":"Geisenhausenerstraße 22, 81379 München","coordinates":[11.52033,48.09634,0],"engineType":"CE","exterior":"GOOD","fuel":53,"interior":"GOOD","name":"B-GO3583","smartPhoneRequired":true,"vin":"WME4533421K036434"},{"address":"Hirschauer Str. 8, 80538 München","coordinates":[11.59561,48.15141,0],"engineType":"CE","exterior":"GOOD","fuel":90,"interior":"GOOD","name":"B-GO8609","smartPhoneRequired":true,"vin":"WDD1760431J513648"},{"address":"Am Glockenbach 6-7, 80469 München","coordinates":[11.56838,48.12639,0],"engineType":"CE","exterior":"GOOD","fuel":76,"interior":"GOOD","name":"B-GO8607","smartPhoneRequired":true,"vin":"WDD1760431J515498"},{"address":"Hans-Döllgast-Straße 16, 80807 München","coordinates":[11.5868,48.18357,0],"engineType":"CE","exterior":"GOOD","fuel":100,"interior":"GOOD","name":"B-GO4660","smartPhoneRequired":true,"vin":"WME4533421K071072"},{"address":"Fallstraße 40, 81369 München","coordinates":[11.53946,48.10679,0],"engineType":"CE","exterior":"GOOD","fuel":36,"interior":"GOOD","name":"B-GO8604","smartPhoneRequired":true,"vin":"WDD1760431J515524"},{"address":"Kathi-Kobus-Straße 21, 80797 München","coordinates":[11.55803,48.16011,0],"engineType":"CE","exterior":"GOOD","fuel":40,"interior":"GOOD","name":"B-GO8598","smartPhoneRequired":true,"vin":"WDD1760431J510772"},{"address":"Anzinger Str. 35, 81671 München","coordinates":[11.61187,48.12106,0],"engineType":"CE","exterior":"GOOD","fuel":68,"interior":"GOOD","name":"B-GO8603","smartPhoneRequired":true,"vin":"WDD1760431J514733"},{"address":"Karlspl. 4, 80335 München","coordinates":[11.56595,48.14025,0],"engineType":"CE","exterior":"GOOD","fuel":98,"interior":"GOOD","name":"B-GO8601","smartPhoneRequired":true,"vin":"WDD1760431J514134"},{"address":"Schondorfer Str. 16, 81379 München","coordinates":[11.51611,48.1078,0],"engineType":"CE","exterior":"GOOD","fuel":48,"interior":"GOOD","name":"B-GO8600","smartPhoneRequired":true,"vin":"WDD1760431J514729"},{"address":"Nymphenburger Str. 139, 80636 München","coordinates":[11.53829,48.15145,0],"engineType":"CE","exterior":"GOOD","fuel":100,"interior":"GOOD","name":"B-GO8599","smartPhoneRequired":true,"vin":"WDD1760431J514894"},{"address":"Connollystraße 28, 80809 München","coordinates":[11.5478,48.18028,0],"engineType":"CE","exterior":"GOOD","fuel":12,"interior":"GOOD","name":"B-GO8595","smartPhoneRequired":true,"vin":"WDD1760431J513311"},{"address":"Goldbergstraße 5, 81479 München","coordinates":[11.52519,48.08027,0],"engineType":"CE","exterior":"GOOD","fuel":100,"interior":"GOOD","name":"B-GO3662","smartPhoneRequired":true,"vin":"WME4533421K036768"},{"address":"Fürstenrieder Str. 141-143, 80686 München","coordinates":[11.50282,48.12749,0],"engineType":"CE","exterior":"GOOD","fuel":100,"interior":"GOOD","name":"B-GO3668","smartPhoneRequired":true,"vin":"WME4533421K037677"},{"address":"De-la-Paz-Straße 6, 80639 München","coordinates":[11.50937,48.15081,0],"engineType":"CE","exterior":"GOOD","fuel":98,"interior":"GOOD","name":"B-GO8594","smartPhoneRequired":true,"vin":"WDD1760431J513166"},{"address":"Oberföhringer Str. 206, 81925 München","coordinates":[11.62474,48.17028,0],"engineType":"CE","exterior":"GOOD","fuel":12,"interior":"GOOD","name":"B-GO8591","smartPhoneRequired":true,"vin":"WDD1760431J511919"},{"address":"Alramstraße 20, 81371 München","coordinates":[11.54471,48.1211,0],"engineType":"CE","exterior":"GOOD","fuel":71,"interior":"GOOD","name":"B-GO3667","smartPhoneRequired":true,"vin":"WME4533421K037302"},{"address":"Siemensallee 4, 81379 München","coordinates":[11.53638,48.09033,0],"engineType":"CE","exterior":"GOOD","fuel":50,"interior":"GOOD","name":"B-GO4259","smartPhoneRequired":true,"vin":"WME4533421K064029"},{"address":"Rablstraße 10, 81669 München","coordinates":[11.58994,48.12767,0],"engineType":"CE","exterior":"GOOD","fuel":54,"interior":"GOOD","name":"B-GO8590","smartPhoneRequired":true,"vin":"WDD1760431J511428"},{"address":"Markomannenstraße 38, 81377 München","coordinates":[11.50561,48.10524,0],"engineType":"CE","exterior":"GOOD","fuel":100,"interior":"GOOD","name":"B-GO3132","smartPhoneRequired":true,"vin":"WME4533421K037227"},{"address":"Klenzestraße 65, 80469 München","coordinates":[11.57164,48.12895,0],"engineType":"CE","exterior":"GOOD","fuel":98,"interior":"GOOD","name":"B-GO8541","smartPhoneRequired":true,"vin":"WDD1760121J510968"},{"address":"Lauchstädter Str. 5-9, 80807 München","coordinates":[11.57396,48.18901,0],"engineType":"CE","exterior":"GOOD","fuel":56,"interior":"GOOD","name":"B-GO8589","smartPhoneRequired":true,"vin":"WDD1760431J512520"},{"address":"Schrottstraße 30, 80686 München","coordinates":[11.50474,48.13905,0],"engineType":"CE","exterior":"GOOD","fuel":24,"interior":"GOOD","name":"B-GO8587","smartPhoneRequired":true,"vin":"WDD1760121J515489"},{"address":"Landsberger Str. 382, 80687 München","coordinates":[11.48705,48.14477,0],"engineType":"CE","exterior":"GOOD","fuel":100,"interior":"GOOD","name":"B-GO8588","smartPhoneRequired":true,"vin":"WDD1760121J513026"},{"address":"Parzivalstraße 47, 80804 München","coordinates":[11.57981,48.17038,0],"engineType":"CE","exterior":"GOOD","fuel":22,"interior":"GOOD","name":"B-GO8586","smartPhoneRequired":true,"vin":"WDD1760121J515024"},{"address":"Falkenstraße 40, 81541 München","coordinates":[11.57821,48.12144,0],"engineType":"CE","exterior":"GOOD","fuel":96,"interior":"GOOD","name":"B-GO4716","smartPhoneRequired":true,"vin":"WME4533421K071195"},{"address":"Balanstraße 70, 81541 München","coordinates":[11.60071,48.11812,0],"engineType":"CE","exterior":"GOOD","fuel":100,"interior":"GOOD","name":"B-GO8581","smartPhoneRequired":true,"vin":"WDD1760121J515019"},{"address":"Pfeuferstraße 8, 81373 München","coordinates":[11.54025,48.12628,0],"engineType":"CE","exterior":"GOOD","fuel":14,"interior":"GOOD","name":"B-GO8578","smartPhoneRequired":true,"vin":"WDD1760121J515593"},{"address":"Zielstattstraße 127, 81379 München","coordinates":[11.51774,48.10197,0],"engineType":"CE","exterior":"GOOD","fuel":100,"interior":"GOOD","name":"B-GO8577","smartPhoneRequired":true,"vin":"WDD1760121J515150"},{"address":"Mayerbacherstraße 16, 85737 Ismaning","coordinates":[11.68117,48.22798,0],"engineType":"CE","exterior":"GOOD","fuel":58,"interior":"GOOD","name":"B-GO8576","smartPhoneRequired":true,"vin":"WDD1760121J513230"},{"address":"Weißenseestraße 130, 81539 München","coordinates":[11.57983,48.1088,0],"engineType":"CE","exterior":"GOOD","fuel":93,"interior":"GOOD","name":"B-GO4665","smartPhoneRequired":true,"vin":"WME4533421K071421"},{"address":"Wilramstraße 11, 81669 München","coordinates":[11.60489,48.11532,0],"engineType":"CE","exterior":"GOOD","fuel":76,"interior":"GOOD","name":"B-GO8558","smartPhoneRequired":true,"vin":"WDD1760121J510444"},{"address":"Hiltenspergerstraße 80, 80796 München","coordinates":[11.56656,48.16622,0],"engineType":"CE","exterior":"GOOD","fuel":66,"interior":"GOOD","name":"B-GO8575","smartPhoneRequired":true,"vin":"WDD1760121J514486"},{"address":"Nördliche Auffahrtsallee 25, 80638 München","coordinates":[11.52263,48.15919,0],"engineType":"CE","exterior":"GOOD","fuel":74,"interior":"GOOD","name":"B-GO8573","smartPhoneRequired":true,"vin":"WDD1760121J512476"},{"address":"Georg-Hager-Straße 14, 81369 München","coordinates":[11.53092,48.10818,0],"engineType":"CE","exterior":"GOOD","fuel":78,"interior":"GOOD","name":"B-GO8572","smartPhoneRequired":true,"vin":"WDD1760121J512079"},{"address":"Max-von-Eyth-Straße 2, 85737 Ismaning","coordinates":[11.67845,48.23318,0],"engineType":"CE","exterior":"GOOD","fuel":64,"interior":"GOOD","name":"B-GO8672","smartPhoneRequired":true,"vin":"WDC1569431J293393"},{"address":"Himbselstraße 2, 80538 München","coordinates":[11.59178,48.14352,0],"engineType":"CE","exterior":"GOOD","fuel":100,"interior":"GOOD","name":"B-GO8570","smartPhoneRequired":true,"vin":"WDD1760121J511823"},{"address":"Ohlenschlagerstraße 9, 81369 München","coordinates":[11.52709,48.10403,0],"engineType":"CE","exterior":"GOOD","fuel":100,"interior":"GOOD","name":"B-GO8569","smartPhoneRequired":true,"vin":"WDD1760121J511247"},{"address":"Dachauer Str. 104A, 80636 München","coordinates":[11.55179,48.15576,0],"engineType":"CE","exterior":"GOOD","fuel":100,"interior":"GOOD","name":"B-GO8567","smartPhoneRequired":true,"vin":"WDD1760121J511271"},{"address":"Regina-Ullmann-Straße 4, 81927 München","coordinates":[11.63654,48.16991,0],"engineType":"CE","exterior":"GOOD","fuel":94,"interior":"GOOD","name":"B-GO8566","smartPhoneRequired":true,"vin":"WDD1760121J513186"},{"address":"Döllingerstraße 28, 80639 München","coordinates":[11.51443,48.15742,0],"engineType":"CE","exterior":"GOOD","fuel":68,"interior":"GOOD","name":"B-GO8564","smartPhoneRequired":true,"vin":"WDD1760121J511879"},{"address":"Landsberger Str. 108, 80339 München","coordinates":[11.53584,48.14004,0],"engineType":"CE","exterior":"GOOD","fuel":58,"interior":"GOOD","name":"B-GO8565","smartPhoneRequired":true,"vin":"WDD1760121J511359"},{"address":"Landsberger Str. 478, 81241 München","coordinates":[11.46455,48.14636,0],"engineType":"CE","exterior":"GOOD","fuel":98,"interior":"GOOD","name":"B-GO8562","smartPhoneRequired":true,"vin":"WDD1760121J512377"},{"address":"Gutzkowstraße 3, 80686 München","coordinates":[11.50405,48.12838,0],"engineType":"CE","exterior":"GOOD","fuel":80,"interior":"GOOD","name":"B-GO8561","smartPhoneRequired":true,"vin":"WDD1760121J510409"},{"address":"Hefner Alteneck Straße 2, 81371 München","coordinates":[11.5617,48.1197,0],"engineType":"CE","exterior":"GOOD","fuel":56,"interior":"GOOD","name":"B-GO8557","smartPhoneRequired":true,"vin":"WDD1760121J510411"},{"address":"Baldurstraße 35, 80638 München","coordinates":[11.52609,48.16876,0],"engineType":"CE","exterior":"GOOD","fuel":62,"interior":"GOOD","name":"B-GO8553","smartPhoneRequired":true,"vin":"WDD1760121J510763"},{"address":"Gutenbergstraße 6, 85737 Ismaning","coordinates":[11.68386,48.23452,0],"engineType":"CE","exterior":"GOOD","fuel":59,"interior":"GOOD","name":"B-GO4275","smartPhoneRequired":true,"vin":"WME4533421K063054"},{"address":"Spixstraße 10, 81539 München","coordinates":[11.58008,48.11149,0],"engineType":"CE","exterior":"GOOD","fuel":62,"interior":"GOOD","name":"B-GO8552","smartPhoneRequired":true,"vin":"WDD1760121J511026"},{"address":"Dieselstraße 10, 85774 Unterföhring","coordinates":[11.65072,48.18599,0],"engineType":"CE","exterior":"GOOD","fuel":12,"interior":"GOOD","name":"B-GO8551","smartPhoneRequired":true,"vin":"WDD1760121J511679"},{"address":"Lerchenfeldstraße 2, 80538 München","coordinates":[11.58924,48.14346,0],"engineType":"CE","exterior":"GOOD","fuel":81,"interior":"GOOD","name":"B-GO3137","smartPhoneRequired":true,"vin":"WME4533421K037072"},{"address":"Hubertusstraße 3-5, 80639 München","coordinates":[11.52003,48.15442,0],"engineType":"CE","exterior":"GOOD","fuel":32,"interior":"GOOD","name":"B-GO8550","smartPhoneRequired":true,"vin":"WDD1760121J510768"},{"address":"Stefan-Zweig-Weg 1A, 81377 München","coordinates":[11.50324,48.10659,0],"engineType":"CE","exterior":"GOOD","fuel":100,"interior":"GOOD","name":"B-GO3545","smartPhoneRequired":true,"vin":"WME4533421K037199"},{"address":"Boschetsrieder Str. 100, 81379 München","coordinates":[11.52486,48.09963,0],"engineType":"CE","exterior":"GOOD","fuel":36,"interior":"GOOD","name":"B-GO8545","smartPhoneRequired":true,"vin":"WDD1760121J511201"},{"address":"Nibelungenstraße 27, 80639 München","coordinates":[11.5244,48.15301,0],"engineType":"CE","exterior":"GOOD","fuel":44,"interior":"GOOD","name":"B-GO8546","smartPhoneRequired":true,"vin":"WDD1760121J511432"},{"address":"Ridlerstraße 75, 80339 München","coordinates":[11.52874,48.13677,0],"engineType":"CE","exterior":"GOOD","fuel":32,"interior":"GOOD","name":"B-GO8549","smartPhoneRequired":true,"vin":"WDD1760121J512523"},{"address":"Guntherstraße 9, 80639 München","coordinates":[11.51129,48.15166,0],"engineType":"CE","exterior":"GOOD","fuel":100,"interior":"GOOD","name":"B-GO4721","smartPhoneRequired":true,"vin":"WME4533421K071620"},{"address":"Feldmochinger Str. 1A, 80992 München","coordinates":[11.52085,48.17731,0],"engineType":"CE","exterior":"GOOD","fuel":24,"interior":"GOOD","name":"B-GO8548","smartPhoneRequired":true,"vin":"WDD1760121J512375"},{"address":"Therese-Studer-Straße 43, 80797 München","coordinates":[11.55933,48.16762,0],"engineType":"CE","exterior":"GOOD","fuel":34,"interior":"GOOD","name":"B-GO3147","smartPhoneRequired":true,"vin":"WME4533421K037409"},{"address":"Thalkirchner Str. 63, 80337 München","coordinates":[11.5582,48.12191,0],"engineType":"CE","exterior":"GOOD","fuel":100,"interior":"GOOD","name":"B-GO3652","smartPhoneRequired":true,"vin":"WME4533421K036937"},{"address":"Schwanseestraße 2, 81539 München","coordinates":[11.59486,48.11009,0],"engineType":"CE","exterior":"GOOD","fuel":40,"interior":"GOOD","name":"B-GO4749","smartPhoneRequired":true,"vin":"WME4533421K071176"},{"address":"Holzstraße 17, 80469 München","coordinates":[11.56782,48.12982,0],"engineType":"CE","exterior":"GOOD","fuel":100,"interior":"GOOD","name":"B-GO8544","smartPhoneRequired":true,"vin":"WDD1760121J510803"},{"address":"Boschetsrieder Str. 80, 81379 München","coordinates":[11.52566,48.09971,0],"engineType":"CE","exterior":"GOOD","fuel":40,"interior":"GOOD","name":"B-GO3694","smartPhoneRequired":true,"vin":"WME4533421K037024"},{"address":"Von-der-Pfordten-Straße 40, 80686 München","coordinates":[11.49572,48.1386,0],"engineType":"CE","exterior":"GOOD","fuel":46,"interior":"GOOD","name":"B-GO3481","smartPhoneRequired":true,"vin":"WME4533421K036526"},{"address":"Robert-Bürkle-Straße 1, 85737 Ismaning","coordinates":[11.68647,48.22856,0],"engineType":"CE","exterior":"GOOD","fuel":12,"interior":"GOOD","name":"B-GO4251","smartPhoneRequired":true,"vin":"WME4533421K063242"},{"address":"Thomas-Dehler-Straße 25, 81737 München","coordinates":[11.64508,48.0983,0],"engineType":"CE","exterior":"GOOD","fuel":100,"interior":"GOOD","name":"B-GO4640","smartPhoneRequired":true,"vin":"WME4533421K072382"},{"address":"Hundesee, 80995 München","coordinates":[11.48049,48.19892,0],"engineType":"CE","exterior":"GOOD","fuel":96,"interior":"GOOD","name":"B-GO3577","smartPhoneRequired":true,"vin":"WME4533421K036707"},{"address":"Endorfer Str. 3, 81549 München","coordinates":[11.61135,48.10988,0],"engineType":"CE","exterior":"GOOD","fuel":100,"interior":"GOOD","name":"B-GO3117","smartPhoneRequired":true,"vin":"WME4533421K035859"},{"address":"E45, 85386 Eching","coordinates":[11.63646,48.29014,0],"engineType":"CE","exterior":"GOOD","fuel":12,"interior":"GOOD","name":"B-GO3525","smartPhoneRequired":true,"vin":"WME4533421K037588"},{"address":"Markomannenstraße 36, 81377 München","coordinates":[11.50531,48.10537,0],"engineType":"CE","exterior":"GOOD","fuel":81,"interior":"GOOD","name":"B-GO3126","smartPhoneRequired":true,"vin":"WME4533421K036482"},{"address":"Oberföhringer Str. 75, 81925 München","coordinates":[11.62121,48.16327,0],"engineType":"CE","exterior":"GOOD","fuel":46,"interior":"GOOD","name":"B-GO4282","smartPhoneRequired":true,"vin":"WME4533421K063589"},{"address":"Gedonstraße 12, 80802 München","coordinates":[11.5885,48.15572,0],"engineType":"CE","exterior":"GOOD","fuel":100,"interior":"GOOD","name":"B-GO3686","smartPhoneRequired":true,"vin":"WME4533421K037847"},{"address":"Aberlestraße 45, 81371 München","coordinates":[11.54513,48.11716,0],"engineType":"CE","exterior":"GOOD","fuel":93,"interior":"GOOD","name":"B-GO3641","smartPhoneRequired":true,"vin":"WME4533421K036070"},{"address":"Goethestraße 74, 80336 München","coordinates":[11.55843,48.13016,0],"engineType":"CE","exterior":"GOOD","fuel":98,"interior":"GOOD","name":"B-GO8542","smartPhoneRequired":true,"vin":"WDD1760121J510663"},{"address":"Pasinger Hofgärten, 81241 München","coordinates":[11.4586,48.14971,0],"engineType":"CE","exterior":"GOOD","fuel":100,"interior":"GOOD","name":"B-GO3709","smartPhoneRequired":true,"vin":"WME4533421K037603"},{"address":"Herzogstraße 24, 80803 München","coordinates":[11.58253,48.16251,0],"engineType":"CE","exterior":"GOOD","fuel":100,"interior":"GOOD","name":"B-GO3695","smartPhoneRequired":true,"vin":"WME4533421K038933"},{"address":"Felix-Fechenbach-Bogen 43, 80797 München","coordinates":[11.55874,48.16731,0],"engineType":"CE","exterior":"GOOD","fuel":93,"interior":"GOOD","name":"B-GO4661","smartPhoneRequired":true,"vin":"WME4533421K071003"},{"address":"Ariboweg 10, 81673 München","coordinates":[11.63841,48.1289,0],"engineType":"CE","exterior":"GOOD","fuel":71,"interior":"GOOD","name":"B-GO3608","smartPhoneRequired":true,"vin":"WME4533421K036298"},{"address":"P20 Ebene 01 - Flughafen MUC, 85445 Oberding","coordinates":[11.78808,48.35196,0],"engineType":"CE","exterior":"GOOD","fuel":65,"interior":"GOOD","name":"B-GO3712","smartPhoneRequired":true,"vin":"WME4533421K038155"},{"address":"Schrottstraße 11-13, 80686 München","coordinates":[11.50846,48.13875,0],"engineType":"CE","exterior":"GOOD","fuel":56,"interior":"GOOD","name":"B-GO3687","smartPhoneRequired":true,"vin":"WME4533421K036018"},{"address":"Heßstraße 54, 80798 München","coordinates":[11.56477,48.15231,0],"engineType":"CE","exterior":"GOOD","fuel":100,"interior":"GOOD","name":"B-GO3496","smartPhoneRequired":true,"vin":"WME4533421K037089"},{"address":"Wageneggerstraße 9, 81669 München","coordinates":[11.61025,48.11633,0],"engineType":"CE","exterior":"GOOD","fuel":100,"interior":"GOOD","name":"B-GO3560","smartPhoneRequired":true,"vin":"WME4533421K036234"},{"address":"Arminiusstraße 14, 81543 München","coordinates":[11.56886,48.11464,0],"engineType":"CE","exterior":"GOOD","fuel":100,"interior":"GOOD","name":"B-GO3600","smartPhoneRequired":true,"vin":"WME4533421K037789"},{"address":"Crusiusstraße 1, 80538 München","coordinates":[11.59491,48.14394,0],"engineType":"CE","exterior":"GOOD","fuel":100,"interior":"GOOD","name":"B-GO4798","smartPhoneRequired":true,"vin":"WME4533421K074651"},{"address":"Welfenstraße 37, 81541 München","coordinates":[11.59211,48.12275,0],"engineType":"CE","exterior":"GOOD","fuel":50,"interior":"GOOD","name":"B-GO4695","smartPhoneRequired":true,"vin":"WME4533421K072225"},{"address":"Nadistraße 137, 80809 München","coordinates":[11.548,48.18284,0],"engineType":"CE","exterior":"GOOD","fuel":100,"interior":"GOOD","name":"B-GO6928","smartPhoneRequired":true,"vin":"WME4533421K085670"},{"address":"Uhlandstraße 1-3, 80336 München","coordinates":[11.55464,48.13422,0],"engineType":"CE","exterior":"GOOD","fuel":100,"interior":"GOOD","name":"B-GO3504","smartPhoneRequired":true,"vin":"WME4533421K036487"},{"address":"Karl-Theodor-Straße 62, 80803 München","coordinates":[11.5777,48.16676,0],"engineType":"CE","exterior":"GOOD","fuel":53,"interior":"GOOD","name":"B-GO3637","smartPhoneRequired":true,"vin":"WME4533421K035715"},{"address":"Virgilstraße 4, 81673 München","coordinates":[11.63585,48.12782,0],"engineType":"CE","exterior":"GOOD","fuel":56,"interior":"GOOD","name":"B-GO4294","smartPhoneRequired":true,"vin":"WME4533421K064750"},{"address":"Baierbrunner Str. 35, 81379 München","coordinates":[11.53195,48.09594,0],"engineType":"CE","exterior":"GOOD","fuel":59,"interior":"GOOD","name":"B-GO4704","smartPhoneRequired":true,"vin":"WME4533421K070041"},{"address":"Frauenchiemseestraße 37, 81669 München","coordinates":[11.60926,48.11043,0],"engineType":"CE","exterior":"GOOD","fuel":100,"interior":"GOOD","name":"B-GO3471","smartPhoneRequired":true,"vin":"WME4533421K035837"},{"address":"Vollmannstraße 45, 81925 München","coordinates":[11.62866,48.15127,0],"engineType":"CE","exterior":"GOOD","fuel":59,"interior":"GOOD","name":"B-GO3136","smartPhoneRequired":true,"vin":"WME4533421K037406"},{"address":"Kastenbauerstraße 3, 81677 München","coordinates":[11.63952,48.1372,0],"engineType":"CE","exterior":"GOOD","fuel":100,"interior":"GOOD","name":"B-GO4781","smartPhoneRequired":true,"vin":"WME4533421K071120"},{"address":"Leo-Graetz-Straße 16, 81379 München","coordinates":[11.51729,48.10074,0],"engineType":"CE","exterior":"GOOD","fuel":93,"interior":"GOOD","name":"B-GO3592","smartPhoneRequired":true,"vin":"WME4533421K036573"},{"address":"Lierstraße 10, 80639 München","coordinates":[11.51305,48.15281,0],"engineType":"CE","exterior":"GOOD","fuel":90,"interior":"GOOD","name":"B-GO3711","smartPhoneRequired":true,"vin":"WME4533421K038390"},{"address":"Else-Lasker-Schüler-Straße, 81925 München","coordinates":[11.62743,48.17036,0],"engineType":"CE","exterior":"GOOD","fuel":68,"interior":"GOOD","name":"B-GO3587","smartPhoneRequired":true,"vin":"WME4533421K036570"},{"address":"Schellingstraße 126, 80798 München","coordinates":[11.56186,48.15436,0],"engineType":"CE","exterior":"GOOD","fuel":93,"interior":"GOOD","name":"B-GO3476","smartPhoneRequired":true,"vin":"WME4533421K036590"},{"address":"Westendstraße 66, 80339 München","coordinates":[11.54095,48.13827,0],"engineType":"CE","exterior":"GOOD","fuel":100,"interior":"GOOD","name":"B-GO3697","smartPhoneRequired":true,"vin":"WME4533421K039501"},{"address":"Landsberger Str. 302, 80687 München","coordinates":[11.50066,48.14338,0],"engineType":"CE","exterior":"GOOD","fuel":31,"interior":"GOOD","name":"B-GO4730","smartPhoneRequired":true,"vin":"WME4533421K072285"},{"address":"Friedastraße 25, 81479 München","coordinates":[11.52781,48.0811,0],"engineType":"CE","exterior":"GOOD","fuel":53,"interior":"GOOD","name":"B-GO4678","smartPhoneRequired":true,"vin":"WME4533421K069850"},{"address":"P20 Ebene 01 - Flughafen MUC, 85445 Oberding","coordinates":[11.78808,48.35196,0],"engineType":"CE","exterior":"GOOD","fuel":53,"interior":"GOOD","name":"B-GO3512","smartPhoneRequired":true,"vin":"WME4533421K036909"},{"address":"Effnerstraße 94, 81925 München","coordinates":[11.62153,48.16043,0],"engineType":"CE","exterior":"GOOD","fuel":65,"interior":"GOOD","name":"B-GO4755","smartPhoneRequired":true,"vin":"WME4533421K071305"},{"address":"Metzstraße 1, 81667 München","coordinates":[11.5949,48.12779,0],"engineType":"CE","exterior":"GOOD","fuel":100,"interior":"GOOD","name":"B-GO3663","smartPhoneRequired":true,"vin":"WME4533421K037315"},{"address":"Landsberger Str. 85-87, 80339 München","coordinates":[11.53591,48.1399,0],"engineType":"CE","exterior":"GOOD","fuel":24,"interior":"GOOD","name":"B-GO5446","smartPhoneRequired":true,"vin":"WDC1569431J300145"},{"address":"Odinstraße 18, 81925 München","coordinates":[11.62011,48.15757,0],"engineType":"CE","exterior":"GOOD","fuel":43,"interior":"GOOD","name":"B-GO3143","smartPhoneRequired":true,"vin":"WME4533421K037378"},{"address":"Ebenböckstraße 14, 81241 München","coordinates":[11.46086,48.14593,0],"engineType":"CE","exterior":"GOOD","fuel":62,"interior":"GOOD","name":"B-GO4691","smartPhoneRequired":true,"vin":"WME4533421K071237"},{"address":"Sophie-Stehle-Straße 3, 80639 München","coordinates":[11.52106,48.15456,0],"engineType":"CE","exterior":"GOOD","fuel":88,"interior":"GOOD","name":"B-GO5430","smartPhoneRequired":true,"vin":"WDC1569121J295450"},{"address":"Hansastraße 142, 81373 München","coordinates":[11.53444,48.11938,0],"engineType":"CE","exterior":"GOOD","fuel":87,"interior":"GOOD","name":"B-GO3689","smartPhoneRequired":true,"vin":"WME4533421K037620"},{"address":"Riedenburger Str. 5, 81677 München","coordinates":[11.62453,48.13693,0],"engineType":"CE","exterior":"GOOD","fuel":50,"interior":"GOOD","name":"B-GO4718","smartPhoneRequired":true,"vin":"WME4533421K071563"},{"address":"Elsässer Str. 16, 81667 München","coordinates":[11.60513,48.13191,0],"engineType":"CE","exterior":"GOOD","fuel":46,"interior":"GOOD","name":"B-GO4634","smartPhoneRequired":true,"vin":"WME4533421K071940"},{"address":"Pfeuferstraße 43-45, 81373 München","coordinates":[11.5414,48.12327,0],"engineType":"CE","exterior":"GOOD","fuel":43,"interior":"GOOD","name":"B-GO4677","smartPhoneRequired":true,"vin":"WME4533421K069651"},{"address":"Seitzstraße 3, 80538 München","coordinates":[11.58452,48.1401,0],"engineType":"CE","exterior":"GOOD","fuel":100,"interior":"GOOD","name":"B-GO3699","smartPhoneRequired":true,"vin":"WME4533421K038872"},{"address":"Lilienstraße 37-39, 81669 München","coordinates":[11.58686,48.12967,0],"engineType":"CE","exterior":"GOOD","fuel":87,"interior":"GOOD","name":"B-GO4277","smartPhoneRequired":true,"vin":"WME4533421K063272"},{"address":"Lindwurmstraße 121, 80337 München","coordinates":[11.55473,48.12758,0],"engineType":"CE","exterior":"GOOD","fuel":98,"interior":"GOOD","name":"B-GO8647","smartPhoneRequired":true,"vin":"WDC1569121J294067"},{"address":"Valleystraße 17, 81371 München","coordinates":[11.54893,48.11755,0],"engineType":"CE","exterior":"GOOD","fuel":100,"interior":"GOOD","name":"B-GO3570","smartPhoneRequired":true,"vin":"WME4533421K035410"},{"address":"Bothestraße 10, 81675 München","coordinates":[11.61325,48.13599,0],"engineType":"CE","exterior":"GOOD","fuel":100,"interior":"GOOD","name":"B-GO3635","smartPhoneRequired":true,"vin":"WME4533421K036557"},{"address":"Maximilianspl. 6, 80333 München","coordinates":[11.56962,48.14177,0],"engineType":"CE","exterior":"GOOD","fuel":25,"interior":"GOOD","name":"B-GO3144","smartPhoneRequired":true,"vin":"WME4533421K035391"},{"address":"Tumblingerstraße 21-23, 80337 München","coordinates":[11.55782,48.12585,0],"engineType":"CE","exterior":"GOOD","fuel":43,"interior":"GOOD","name":"B-GO4757","smartPhoneRequired":true,"vin":"WME4533421K072092"},{"address":"Görresstraße 8, 80798 München","coordinates":[11.56669,48.15471,0],"engineType":"CE","exterior":"GOOD","fuel":54,"interior":"GOOD","name":"B-GO5428","smartPhoneRequired":true,"vin":"WDC1569121J293993"},{"address":"Balanstraße 66, 81541 München","coordinates":[11.60046,48.11885,0],"engineType":"CE","exterior":"GOOD","fuel":53,"interior":"GOOD","name":"B-GO4787","smartPhoneRequired":true,"vin":"WME4533421K071451"},{"address":"Gyßlingstraße 7, 80805 München","coordinates":[11.59931,48.15981,0],"engineType":"CE","exterior":"GOOD","fuel":81,"interior":"GOOD","name":"B-GO3223","smartPhoneRequired":true,"vin":"WME4533421K036388"},{"address":"Wolfratshauser Str. 214, 81479 München","coordinates":[11.52728,48.08062,0],"engineType":"CE","exterior":"GOOD","fuel":100,"interior":"GOOD","name":"B-GO4786","smartPhoneRequired":true,"vin":"WME4533421K071598"},{"address":"Kaiserstraße 22, 80801 München","coordinates":[11.58354,48.16087,0],"engineType":"CE","exterior":"GOOD","fuel":18,"interior":"GOOD","name":"B-GO4637","smartPhoneRequired":true,"vin":"WME4533421K072690"},{"address":"Zamdorfer Str. 80, 81677 München","coordinates":[11.63726,48.1386,0],"engineType":"CE","exterior":"GOOD","fuel":100,"interior":"GOOD","name":"B-GO4685","smartPhoneRequired":true,"vin":"WME4533421K070355"},{"address":"Röntgenstraße 18, 81679 München","coordinates":[11.61193,48.1418,0],"engineType":"CE","exterior":"GOOD","fuel":56,"interior":"GOOD","name":"B-GO4657","smartPhoneRequired":true,"vin":"WME4533421K071135"},{"address":"Krumbacherstraße 4, 80798 München","coordinates":[11.56731,48.15856,0],"engineType":"CE","exterior":"GOOD","fuel":65,"interior":"GOOD","name":"B-GO3645","smartPhoneRequired":true,"vin":"WME4533421K036833"},{"address":"Valleystraße 50, 81371 München","coordinates":[11.54305,48.11691,0],"engineType":"CE","exterior":"GOOD","fuel":53,"interior":"GOOD","name":"B-GO3544","smartPhoneRequired":true,"vin":"WME4533421K037634"},{"address":"Ernst-Curtius-Weg, 80809 München","coordinates":[11.54475,48.17527,0],"engineType":"CE","exterior":"GOOD","fuel":31,"interior":"GOOD","name":"B-GO3558","smartPhoneRequired":true,"vin":"WME4533421K037715"},{"address":"Tumblingerstraße 20, 80337 München","coordinates":[11.55907,48.1267,0],"engineType":"CE","exterior":"GOOD","fuel":46,"interior":"GOOD","name":"B-GO3595","smartPhoneRequired":true,"vin":"WME4533421K036782"},{"address":"Schwanthalerstraße 83, 80336 München","coordinates":[11.55362,48.13748,0],"engineType":"CE","exterior":"GOOD","fuel":24,"interior":"GOOD","name":"B-GO8597","smartPhoneRequired":true,"vin":"WDD1760431J511708"},{"address":"Hölderlinstraße 6-8, 81369 München","coordinates":[11.52273,48.11386,0],"engineType":"CE","exterior":"GOOD","fuel":64,"interior":"GOOD","name":"B-GO5424","smartPhoneRequired":true,"vin":"WDC1569121J296082"},{"address":"Georg-Hager-Straße 8, 81369 München","coordinates":[11.53107,48.10883,0],"engineType":"CE","exterior":"GOOD","fuel":78,"interior":"GOOD","name":"B-GO3596","smartPhoneRequired":true,"vin":"WME4533421K037776"},{"address":"Hochstiftsweg 29, 81925 München","coordinates":[11.63107,48.16923,0],"engineType":"CE","exterior":"GOOD","fuel":28,"interior":"GOOD","name":"B-GO3578","smartPhoneRequired":true,"vin":"WME4533421K035993"},{"address":"Amalienstraße 54, 80799 München","coordinates":[11.57867,48.15048,0],"engineType":"CE","exterior":"GOOD","fuel":31,"interior":"GOOD","name":"B-GO3599","smartPhoneRequired":true,"vin":"WME4533421K036073"},{"address":"P20 Ebene 01 - Flughafen MUC, 85445 Oberding","coordinates":[11.78808,48.35196,0],"engineType":"CE","exterior":"GOOD","fuel":28,"interior":"GOOD","name":"B-GO3571","smartPhoneRequired":true,"vin":"WME4533421K036413"},{"address":"Tumblingerstraße 21-23, 80337 München","coordinates":[11.5572,48.12546,0],"engineType":"CE","exterior":"GOOD","fuel":100,"interior":"GOOD","name":"B-GO4647","smartPhoneRequired":true,"vin":"WME4533421K070549"},{"address":"Bergmannstraße 12, 80339 München","coordinates":[11.53722,48.13876,0],"engineType":"CE","exterior":"GOOD","fuel":64,"interior":"GOOD","name":"B-GO8649","smartPhoneRequired":true,"vin":"WDC1569121J295786"},{"address":"Orleansstraße 35, 81667 München","coordinates":[11.60146,48.12672,0],"engineType":"CE","exterior":"GOOD","fuel":65,"interior":"GOOD","name":"B-GO3706","smartPhoneRequired":true,"vin":"WME4533421K036403"},{"address":"Kaiserstraße 65, 80801 München","coordinates":[11.57592,48.16122,0],"engineType":"CE","exterior":"GOOD","fuel":90,"interior":"GOOD","name":"B-GO3530","smartPhoneRequired":true,"vin":"WME4533421K037321"},{"address":"Hochstraße 47, 81541 München","coordinates":[11.5855,48.12416,0],"engineType":"CE","exterior":"GOOD","fuel":84,"interior":"GOOD","name":"B-GO3714","smartPhoneRequired":true,"vin":"WME4533421K037720"},{"address":"Paschstraße 60, 80637 München","coordinates":[11.53301,48.16562,0],"engineType":"CE","exterior":"GOOD","fuel":74,"interior":"GOOD","name":"B-GO8554","smartPhoneRequired":true,"vin":"WDD1760121J510686"},{"address":"Implerstraße 66, 81371 München","coordinates":[11.5485,48.11507,0],"engineType":"CE","exterior":"GOOD","fuel":21,"interior":"GOOD","name":"B-GO3684","smartPhoneRequired":true,"vin":"WME4533421K036811"},{"address":"B2R, 80637 München","coordinates":[11.53732,48.15885,0],"engineType":"CE","exterior":"GOOD","fuel":100,"interior":"GOOD","name":"B-GO8662","smartPhoneRequired":true,"vin":"WDC1569431J294718"},{"address":"Halskestraße 8-10, 81379 München","coordinates":[11.5207,48.09986,0],"engineType":"CE","exterior":"GOOD","fuel":100,"interior":"GOOD","name":"B-GO3640","smartPhoneRequired":true,"vin":"WME4533421K037695"},{"address":"Oberföhringer Str. 125, 81925 München","coordinates":[11.62425,48.16828,0],"engineType":"CE","exterior":"GOOD","fuel":31,"interior":"GOOD","name":"B-GO3623","smartPhoneRequired":true,"vin":"WME4533421K035719"},{"address":"Schleißheimer Str. 90, 80797 München","coordinates":[11.56166,48.15523,0],"engineType":"CE","exterior":"GOOD","fuel":100,"interior":"GOOD","name":"B-GO3508","smartPhoneRequired":true,"vin":"WME4533421K035439"},{"address":"Hiltenspergerstraße 24, 80798 München","coordinates":[11.56649,48.15858,0],"engineType":"CE","exterior":"GOOD","fuel":84,"interior":"GOOD","name":"B-GO3639","smartPhoneRequired":true,"vin":"WME4533421K036156"},{"address":"Am Einlaß 3A, 80469 München","coordinates":[11.575,48.13341,0],"engineType":"CE","exterior":"GOOD","fuel":56,"interior":"GOOD","name":"B-GO4388","smartPhoneRequired":true,"vin":"WME4533421K063090"},{"address":"Franz-von-Rinecker-Straße, 81379 München","coordinates":[11.55011,48.10515,0],"engineType":"CE","exterior":"GOOD","fuel":15,"interior":"GOOD","name":"B-GO4290","smartPhoneRequired":true,"vin":"WME4533421K064622"},{"address":"Ohmstraße 5, 85609 Aschheim","coordinates":[11.68298,48.15308,0],"engineType":"CE","exterior":"GOOD","fuel":21,"interior":"GOOD","name":"B-GO3487","smartPhoneRequired":true,"vin":"WME4533421K035844"},{"address":"Theresienstraße 19, München","coordinates":[11.57675,48.14759,0],"engineType":"CE","exterior":"GOOD","fuel":87,"interior":"GOOD","name":"B-GO3605","smartPhoneRequired":true,"vin":"WME4533421K036534"},{"address":"Ringseisstraße 11A, 80337 München","coordinates":[11.56139,48.12949,0],"engineType":"CE","exterior":"GOOD","fuel":31,"interior":"GOOD","name":"B-GO3124","smartPhoneRequired":true,"vin":"WME4533421K036711"},{"address":"Treffauerstraße 17, 81373 München","coordinates":[11.5233,48.11714,0],"engineType":"CE","exterior":"GOOD","fuel":15,"interior":"GOOD","name":"B-GO3627","smartPhoneRequired":true,"vin":"WME4533421K035854"},{"address":"Bad-Schachener-Straße 80, 81671 München","coordinates":[11.62578,48.11979,0],"engineType":"CE","exterior":"GOOD","fuel":46,"interior":"GOOD","name":"B-GO3633","smartPhoneRequired":true,"vin":"WME4533421K036017"},{"address":"Aidenbachstraße 79-81, 81379 München","coordinates":[11.52292,48.09388,0],"engineType":"CE","exterior":"GOOD","fuel":62,"interior":"GOOD","name":"B-GO4654","smartPhoneRequired":true,"vin":"WME4533421K070472"},{"address":"Leopoldstraße 184, 80804 München","coordinates":[11.58589,48.1737,0],"engineType":"CE","exterior":"GOOD","fuel":100,"interior":"GOOD","name":"B-GO3621","smartPhoneRequired":true,"vin":"WME4533421K035714"},{"address":"Josephsburgstraße 38, 81673 München","coordinates":[11.63251,48.12623,0],"engineType":"CE","exterior":"GOOD","fuel":100,"interior":"GOOD","name":"B-GO3462","smartPhoneRequired":true,"vin":"WME4533421K036822"},{"address":"Maria-Birnbaum-Straße 10A, 80686 München","coordinates":[11.51064,48.13596,0],"engineType":"CE","exterior":"GOOD","fuel":65,"interior":"GOOD","name":"B-GO4274","smartPhoneRequired":true,"vin":"WME4533421K064100"},{"address":"Gotzinger Str. 23, 81371 München","coordinates":[11.55036,48.11964,0],"engineType":"CE","exterior":"GOOD","fuel":71,"interior":"GOOD","name":"B-GO3491","smartPhoneRequired":true,"vin":"WME4533421K037496"},{"address":"Tölzer Str. 35, 81379 München","coordinates":[11.538,48.09806,0],"engineType":"CE","exterior":"GOOD","fuel":68,"interior":"GOOD","name":"B-GO4641","smartPhoneRequired":true,"vin":"WME4533421K072613"},{"address":"Sonnenstraße 21, 80331 München","coordinates":[11.56544,48.13583,0],"engineType":"CE","exterior":"GOOD","fuel":71,"interior":"GOOD","name":"B-GO4256","smartPhoneRequired":true,"vin":"WME4533421K063670"},{"address":"Südliche Auffahrtsallee 69, 80639 München","coordinates":[11.51347,48.15838,0],"engineType":"CE","exterior":"GOOD","fuel":62,"interior":"GOOD","name":"B-GO4762","smartPhoneRequired":true,"vin":"WME4533421K072277"},{"address":"Maikammerer Str. 21, 81539 München","coordinates":[11.60272,48.11078,0],"engineType":"CE","exterior":"GOOD","fuel":75,"interior":"GOOD","name":"B-GO3563","smartPhoneRequired":true,"vin":"WME4533421K037420"},{"address":"Kärntner Pl. 4, 80686 München","coordinates":[11.50346,48.12648,0],"engineType":"CE","exterior":"GOOD","fuel":25,"interior":"GOOD","name":"B-GO4650","smartPhoneRequired":true,"vin":"WME4533421K070261"},{"address":"Flotowstraße 53, 80686 München","coordinates":[11.50465,48.13092,0],"engineType":"CE","exterior":"GOOD","fuel":100,"interior":"GOOD","name":"B-GO4701","smartPhoneRequired":true,"vin":"WME4533421K069542"},{"address":"Stefan-Zweig-Weg 1A, 81377 München","coordinates":[11.50304,48.10655,0],"engineType":"CE","exterior":"GOOD","fuel":100,"interior":"GOOD","name":"B-GO4688","smartPhoneRequired":true,"vin":"WME4533421K071286"},{"address":"Cimbernstraße 95, 81377 München","coordinates":[11.50521,48.10547,0],"engineType":"CE","exterior":"GOOD","fuel":100,"interior":"GOOD","name":"B-GO3492","smartPhoneRequired":true,"vin":"WME4533421K036472"},{"address":"Zaubzerstraße 56, 81677 München","coordinates":[11.61676,48.13917,0],"engineType":"CE","exterior":"GOOD","fuel":65,"interior":"GOOD","name":"B-GO4774","smartPhoneRequired":true,"vin":"WME4533421K070561"},{"address":"Giselherstraße 14, 80804 München","coordinates":[11.56659,48.17379,0],"engineType":"CE","exterior":"GOOD","fuel":71,"interior":"GOOD","name":"B-GO4807","smartPhoneRequired":true,"vin":"WME4533421K072879"},{"address":"Dom-Pedro-Straße 49, 80637 München","coordinates":[11.53579,48.15972,0],"engineType":"CE","exterior":"GOOD","fuel":28,"interior":"GOOD","name":"B-GO8579","smartPhoneRequired":true,"vin":"WDD1760121J515352"},{"address":"Zielstattstraße 10, 81379 München","coordinates":[11.53258,48.10296,0],"engineType":"CE","exterior":"GOOD","fuel":100,"interior":"GOOD","name":"B-GO3628","smartPhoneRequired":true,"vin":"WME4533421K036041"},{"address":"Georgenstraße 144, 80797 München","coordinates":[11.56118,48.15747,0],"engineType":"CE","exterior":"GOOD","fuel":37,"interior":"GOOD","name":"B-GO3459","smartPhoneRequired":true,"vin":"WME4533421K036878"},{"address":"Veit-Stoß-Straße 37, 80687 München","coordinates":[11.50629,48.14122,0],"engineType":"CE","exterior":"GOOD","fuel":21,"interior":"GOOD","name":"B-GO4257","smartPhoneRequired":true,"vin":"WME4533421K063724"},{"address":"Baierbrunner Str. 50, 81379 München","coordinates":[11.53031,48.09323,0],"engineType":"CE","exterior":"GOOD","fuel":68,"interior":"GOOD","name":"B-GO3589","smartPhoneRequired":true,"vin":"WME4533421K037518"},{"address":"Leopoldstraße 184, 80804 München","coordinates":[11.58584,48.1736,0],"engineType":"CE","exterior":"GOOD","fuel":87,"interior":"GOOD","name":"B-GO3490","smartPhoneRequired":true,"vin":"WME4533421K035589"},{"address":"Wolfratshauser Str. 210, 81479 München","coordinates":[11.52841,48.08067,0],"engineType":"CE","exterior":"GOOD","fuel":87,"interior":"GOOD","name":"B-GO3537","smartPhoneRequired":true,"vin":"WME4533421K036875"},{"address":"Emanuelstraße 24, 80796 München","coordinates":[11.5702,48.16169,0],"engineType":"CE","exterior":"GOOD","fuel":90,"interior":"GOOD","name":"B-GO3119","smartPhoneRequired":true,"vin":"WME4533421K036335"},{"address":"Josef-Lang-Straße 3, 81245 München","coordinates":[11.47158,48.14969,0],"engineType":"CE","exterior":"GOOD","fuel":34,"interior":"GOOD","name":"B-GO3622","smartPhoneRequired":true,"vin":"WME4533421K036980"},{"address":"Campeon Neubiberg","coordinates":[11.61288,48.08081,0],"engineType":"CE","exterior":"GOOD","fuel":28,"interior":"GOOD","name":"B-GO4264","smartPhoneRequired":true,"vin":"WME4533421K064647"},{"address":"Naupliastraße 41A, 81547 München","coordinates":[11.57745,48.09632,0],"engineType":"CE","exterior":"GOOD","fuel":36,"interior":"GOOD","name":"B-GO8627","smartPhoneRequired":true,"vin":"WDD1760431J512804"},{"address":"Gufidauner Str. 4, 81547 München","coordinates":[11.58086,48.10555,0],"engineType":"CE","exterior":"GOOD","fuel":37,"interior":"GOOD","name":"B-GO4734","smartPhoneRequired":true,"vin":"WME4533421K069920"},{"address":"Asamstraße 12A, 81541 München","coordinates":[11.57755,48.1246,0],"engineType":"CE","exterior":"GOOD","fuel":100,"interior":"GOOD","name":"B-GO4261","smartPhoneRequired":true,"vin":"WME4533421K065297"},{"address":"Ohlmüllerstraße 22, 81541 München","coordinates":[11.58066,48.12482,0],"engineType":"CE","exterior":"GOOD","fuel":100,"interior":"GOOD","name":"B-GO3651","smartPhoneRequired":true,"vin":"WME4533421K036798"},{"address":"Josef-Felder-Straße, 81241 München","coordinates":[11.46938,48.14699,0],"engineType":"CE","exterior":"GOOD","fuel":78,"interior":"GOOD","name":"B-GO3708","smartPhoneRequired":true,"vin":"WME4533421K039863"},{"address":"Hornstraße 12, 80797 München","coordinates":[11.56189,48.17008,0],"engineType":"CE","exterior":"GOOD","fuel":56,"interior":"GOOD","name":"B-GO4287","smartPhoneRequired":true,"vin":"WME4533421K065471"},{"address":"Gunta-Stölzl-Straße 12, 80807 München","coordinates":[11.59078,48.18067,0],"engineType":"CE","exterior":"GOOD","fuel":100,"interior":"GOOD","name":"B-GO3133","smartPhoneRequired":true,"vin":"WME4533421K036079"},{"address":"Gollierstraße 17, 80339 München","coordinates":[11.54456,48.13583,0],"engineType":"CE","exterior":"GOOD","fuel":50,"interior":"GOOD","name":"B-GO3458","smartPhoneRequired":true,"vin":"WME4533421K036373"},{"address":"Graf-Konrad-Straße 25, 80809 München","coordinates":[11.56333,48.18236,0],"engineType":"CE","exterior":"GOOD","fuel":100,"interior":"GOOD","name":"B-GO4267","smartPhoneRequired":true,"vin":"WME4533421K064505"},{"address":"Cimbernstraße 74, 81377 München","coordinates":[11.50538,48.10554,0],"engineType":"CE","exterior":"GOOD","fuel":18,"interior":"GOOD","name":"B-GO3415","smartPhoneRequired":true,"vin":"WME4533421K036683"},{"address":"Bruderstraße 9, 80538 München","coordinates":[11.58699,48.14299,0],"engineType":"CE","exterior":"GOOD","fuel":100,"interior":"GOOD","name":"B-GO3522","smartPhoneRequired":true,"vin":"WME4533421K035475"},{"address":"Gewürzmühlstraße 12, 80538 München","coordinates":[11.59095,48.13828,0],"engineType":"CE","exterior":"GOOD","fuel":18,"interior":"GOOD","name":"B-GO3585","smartPhoneRequired":true,"vin":"WME4533421K036976"},{"address":"Falkenstraße 16, 81541 München","coordinates":[11.57972,48.12291,0],"engineType":"CE","exterior":"GOOD","fuel":37,"interior":"GOOD","name":"B-GO3646","smartPhoneRequired":true,"vin":"WME4533421K037215"},{"address":"Arnulfstraße 9-11, 80335 München","coordinates":[11.55481,48.14225,0],"engineType":"CE","exterior":"GOOD","fuel":65,"interior":"GOOD","name":"B-GO3597","smartPhoneRequired":true,"vin":"WME4533421K036504"},{"address":"Geisenhausenerstraße 15-17, 81379 München","coordinates":[11.52049,48.09629,0],"engineType":"CE","exterior":"GOOD","fuel":65,"interior":"GOOD","name":"B-GO3468","smartPhoneRequired":true,"vin":"WME4533421K036850"},{"address":"Maria-Eich-Straße 14, 81243 München","coordinates":[11.45301,48.14489,0],"engineType":"CE","exterior":"GOOD","fuel":75,"interior":"GOOD","name":"B-GO4258","smartPhoneRequired":true,"vin":"WME4533421K064682"},{"address":"Gräfstraße 43, 81241 München","coordinates":[11.4695,48.14254,0],"engineType":"CE","exterior":"GOOD","fuel":100,"interior":"GOOD","name":"B-GO3529","smartPhoneRequired":true,"vin":"WME4533421K037384"},{"address":"Lindwurmstraße 92A, 80337 München","coordinates":[11.54689,48.12349,0],"engineType":"CE","exterior":"GOOD","fuel":50,"interior":"GOOD","name":"B-GO3150","smartPhoneRequired":true,"vin":"WME4533421K035547"},{"address":"Kronstadter Str. 9, 81677 München","coordinates":[11.64783,48.13835,0],"engineType":"CE","exterior":"GOOD","fuel":40,"interior":"GOOD","name":"B-GO3582","smartPhoneRequired":true,"vin":"WME4533421K036662"},{"address":"Sonnenlängstraße 21, 81369 München","coordinates":[11.53451,48.1063,0],"engineType":"CE","exterior":"GOOD","fuel":100,"interior":"GOOD","name":"B-GO3619","smartPhoneRequired":true,"vin":"WME4533421K035666"},{"address":"Erich-Kästner-Straße 32, 80796 München","coordinates":[11.56972,48.1648,0],"engineType":"CE","exterior":"GOOD","fuel":100,"interior":"GOOD","name":"B-GO3145","smartPhoneRequired":true,"vin":"WME4533421K037014"},{"address":"Allmannshausener Str. 30, 81379 München","coordinates":[11.52356,48.09216,0],"engineType":"CE","exterior":"GOOD","fuel":56,"interior":"GOOD","name":"B-GO4720","smartPhoneRequired":true,"vin":"WME4533421K071416"},{"address":"Drachenseestraße 3, 81373 München","coordinates":[11.53231,48.11949,0],"engineType":"CE","exterior":"GOOD","fuel":100,"interior":"GOOD","name":"B-GO3130","smartPhoneRequired":true,"vin":"WME4533421K037144"},{"address":"Viktoriastraße 3, 80803 München","coordinates":[11.57986,48.16233,0],"engineType":"CE","exterior":"GOOD","fuel":28,"interior":"GOOD","name":"B-GO3657","smartPhoneRequired":true,"vin":"WME4533421K037029"},{"address":"Kistlerhofstraße 170, 81379 München","coordinates":[11.51039,48.09449,0],"engineType":"CE","exterior":"GOOD","fuel":31,"interior":"GOOD","name":"B-GO4745","smartPhoneRequired":true,"vin":"WME4533421K070141"},{"address":"Thalkirchner Str. 142, 81371 München","coordinates":[11.55167,48.11597,0],"engineType":"CE","exterior":"GOOD","fuel":81,"interior":"GOOD","name":"B-GO4768","smartPhoneRequired":true,"vin":"WME4533421K069971"},{"address":"Berg-am-Laim-Straße 80, 81673 München","coordinates":[11.6202,48.13016,0],"engineType":"CE","exterior":"GOOD","fuel":34,"interior":"GOOD","name":"B-GO4697","smartPhoneRequired":true,"vin":"WME4533421K069926"},{"address":"P20 Ebene 01 - Flughafen MUC, 85445 Oberding","coordinates":[11.78808,48.35196,0],"engineType":"CE","exterior":"GOOD","fuel":81,"interior":"GOOD","name":"B-GO3486","smartPhoneRequired":true,"vin":"WME4533421K035931"},{"address":"P20 Ebene 01 - Flughafen MUC, 85445 Oberding","coordinates":[11.78808,48.35196,0],"engineType":"CE","exterior":"GOOD","fuel":71,"interior":"GOOD","name":"B-GO3489","smartPhoneRequired":true,"vin":"WME4533421K037365"},{"address":"Frankenthaler Str. 5, 81539 München","coordinates":[11.59791,48.10935,0],"engineType":"CE","exterior":"GOOD","fuel":93,"interior":"GOOD","name":"B-GO4272","smartPhoneRequired":true,"vin":"WME4533421K064825"},{"address":"Schillerstraße 24, 80336 München","coordinates":[11.56095,48.13691,0],"engineType":"CE","exterior":"GOOD","fuel":12,"interior":"GOOD","name":"B-GO4286","smartPhoneRequired":true,"vin":"WME4533421K065152"},{"address":"Innere Wiener Straße 24, 81667 München","coordinates":[11.59379,48.13352,0],"engineType":"CE","exterior":"GOOD","fuel":78,"interior":"GOOD","name":"B-GO3604","smartPhoneRequired":true,"vin":"WME4533421K036804"},{"address":"Ferdinand-Maria-Straße 39, 80639 München","coordinates":[11.51659,48.15696,0],"engineType":"CE","exterior":"GOOD","fuel":34,"interior":"GOOD","name":"B-GO3511","smartPhoneRequired":true,"vin":"WME4533421K037699"},{"address":"Josephsburgstraße 22, 81673 München","coordinates":[11.62826,48.12727,0],"engineType":"CE","exterior":"GOOD","fuel":34,"interior":"GOOD","name":"B-GO4281","smartPhoneRequired":true,"vin":"WME4533421K063562"},{"address":"Lerchenauer Str. 30, 80809 München","coordinates":[11.56096,48.17365,0],"engineType":"CE","exterior":"GOOD","fuel":81,"interior":"GOOD","name":"B-GO3720","smartPhoneRequired":true,"vin":"WME4533421K037930"},{"address":"P20 Ebene 01 - Flughafen MUC, 85445 Oberding","coordinates":[11.78808,48.35196,0],"engineType":"CE","exterior":"GOOD","fuel":28,"interior":"GOOD","name":"B-GO3118","smartPhoneRequired":true,"vin":"WME4533421K036525"},{"address":"Seeaustraße 1, 80538 München","coordinates":[11.59298,48.14424,0],"engineType":"CE","exterior":"GOOD","fuel":84,"interior":"GOOD","name":"B-GO4731","smartPhoneRequired":true,"vin":"WME4533421K072542"},{"address":"Campeon Neubiberg","coordinates":[11.61288,48.08081,0],"engineType":"CE","exterior":"GOOD","fuel":18,"interior":"GOOD","name":"B-GO3539","smartPhoneRequired":true,"vin":"WME4533421K037099"},{"address":"Wilhelmstraße 15, 80801 München","coordinates":[11.58267,48.15984,0],"engineType":"CE","exterior":"GOOD","fuel":100,"interior":"GOOD","name":"B-GO4292","smartPhoneRequired":true,"vin":"WME4533421K065280"},{"address":"Wendl-Dietrich-Straße 13, 80634 München","coordinates":[11.52978,48.15226,0],"engineType":"CE","exterior":"GOOD","fuel":31,"interior":"GOOD","name":"B-GO3553","smartPhoneRequired":true,"vin":"WME4533421K037361"},{"address":"Hiltenspergerstraße 78, 80796 München","coordinates":[11.5666,48.16572,0],"engineType":"CE","exterior":"GOOD","fuel":21,"interior":"GOOD","name":"B-GO4670","smartPhoneRequired":true,"vin":"WME4533421K072124"},{"address":"Karl-Scharnagl-Ring 8, 80538 München","coordinates":[11.5844,48.13987,0],"engineType":"CE","exterior":"GOOD","fuel":100,"interior":"GOOD","name":"B-GO3613","smartPhoneRequired":true,"vin":"WME4533421K036677"},{"address":"Bereiteranger 13, 81541 München","coordinates":[11.5803,48.12621,0],"engineType":"CE","exterior":"GOOD","fuel":62,"interior":"GOOD","name":"B-GO3561","smartPhoneRequired":true,"vin":"WME4533421K035595"},{"address":"Denninger Str. 169, 81925 München","coordinates":[11.62702,48.14763,0],"engineType":"CE","exterior":"GOOD","fuel":43,"interior":"GOOD","name":"B-GO3538","smartPhoneRequired":true,"vin":"WME4533421K035583"},{"address":"Peter-Paul-Althaus-Straße 3, 80805 München","coordinates":[11.60273,48.17067,0],"engineType":"CE","exterior":"GOOD","fuel":84,"interior":"GOOD","name":"B-GO3480","smartPhoneRequired":true,"vin":"WME4533421K036996"},{"address":"Siemensallee 71, 81379 München","coordinates":[11.52483,48.09055,0],"engineType":"CE","exterior":"GOOD","fuel":71,"interior":"GOOD","name":"B-GO3470","smartPhoneRequired":true,"vin":"WME4533421K035683"},{"address":"Adams-Lehmann-Straße 73, 80797 München","coordinates":[11.56075,48.16216,0],"engineType":"CE","exterior":"GOOD","fuel":100,"interior":"GOOD","name":"B-GO3521","smartPhoneRequired":true,"vin":"WME4533421K036881"},{"address":"Nimmerfallstraße 30, 81245 München","coordinates":[11.47045,48.14919,0],"engineType":"CE","exterior":"GOOD","fuel":71,"interior":"GOOD","name":"B-GO4760","smartPhoneRequired":true,"vin":"WME4533421K072145"},{"address":"Ackermannstraße 65, 80797 München","coordinates":[11.55519,48.16821,0],"engineType":"CE","exterior":"GOOD","fuel":28,"interior":"GOOD","name":"B-GO4803","smartPhoneRequired":true,"vin":"WME4533421K072852"},{"address":"Darmstädter Str. 11, 80992 München","coordinates":[11.52512,48.17556,0],"engineType":"CE","exterior":"GOOD","fuel":62,"interior":"GOOD","name":"B-GO3642","smartPhoneRequired":true,"vin":"WME4533421K037711"},{"address":"Höglwörther Str. 348, 81379 München","coordinates":[11.51148,48.10127,0],"engineType":"CE","exterior":"GOOD","fuel":100,"interior":"GOOD","name":"B-GO3634","smartPhoneRequired":true,"vin":"WME4533421K035883"},{"address":"Herthastraße 28, 80639 München","coordinates":[11.50272,48.14943,0],"engineType":"CE","exterior":"GOOD","fuel":93,"interior":"GOOD","name":"B-GO3565","smartPhoneRequired":true,"vin":"WME4533421K036701"},{"address":"Maronstraße 2-6, 81373 München","coordinates":[11.54016,48.1241,0],"engineType":"CE","exterior":"GOOD","fuel":53,"interior":"GOOD","name":"B-GO3629","smartPhoneRequired":true,"vin":"WME4533421K037672"},{"address":"Schellingstraße 54-56, 80799 München","coordinates":[11.5729,48.15116,0],"engineType":"CE","exterior":"GOOD","fuel":37,"interior":"GOOD","name":"B-GO3146","smartPhoneRequired":true,"vin":"WME4533421K035371"},{"address":"Adalbert-Stifter-Straße 44, 81925 München","coordinates":[11.61759,48.16199,0],"engineType":"CE","exterior":"GOOD","fuel":37,"interior":"GOOD","name":"B-GO4764","smartPhoneRequired":true,"vin":"WME4533421K072397"},{"address":"Uhlandstraße 1-3, 80336 München","coordinates":[11.55469,48.13426,0],"engineType":"CE","exterior":"GOOD","fuel":15,"interior":"GOOD","name":"B-GO3505","smartPhoneRequired":true,"vin":"WME4533421K036479"},{"address":"Hundesee, 80995 München","coordinates":[11.48041,48.19896,0],"engineType":"CE","exterior":"GOOD","fuel":59,"interior":"GOOD","name":"B-GO3551","smartPhoneRequired":true,"vin":"WME4533421K036277"},{"address":"Prinzregentenpl. 10, 81675 München","coordinates":[11.60435,48.13944,0],"engineType":"CE","exterior":"GOOD","fuel":100,"interior":"GOOD","name":"B-GO3502","smartPhoneRequired":true,"vin":"WME4533421K037431"},{"address":"Balanstraße 34-38, 81669 München","coordinates":[11.59642,48.12457,0],"engineType":"CE","exterior":"GOOD","fuel":53,"interior":"GOOD","name":"B-GO4255","smartPhoneRequired":true,"vin":"WME4533421K063608"},{"address":"Horscheltstraße 4, 80796 München","coordinates":[11.56551,48.16033,0],"engineType":"CE","exterior":"GOOD","fuel":21,"interior":"GOOD","name":"B-GO3503","smartPhoneRequired":true,"vin":"WME4533421K036886"},{"address":"Guerickestraße 6, 80805 München","coordinates":[11.59853,48.17574,0],"engineType":"CE","exterior":"GOOD","fuel":100,"interior":"GOOD","name":"B-GO4662","smartPhoneRequired":true,"vin":"WME4533421K071551"},{"address":"Robert-Bürkle-Straße 1, 85737 Ismaning","coordinates":[11.68658,48.22856,0],"engineType":"CE","exterior":"GOOD","fuel":21,"interior":"GOOD","name":"B-GO3128","smartPhoneRequired":true,"vin":"WME4533421K036184"},{"address":"Saleggstraße 23, 81547 München","coordinates":[11.57237,48.10413,0],"engineType":"CE","exterior":"GOOD","fuel":100,"interior":"GOOD","name":"B-GO4652","smartPhoneRequired":true,"vin":"WME4533421K070092"},{"address":"Feldmochinger Str. 8, 80992 München","coordinates":[11.52118,48.17767,0],"engineType":"CE","exterior":"GOOD","fuel":92,"interior":"GOOD","name":"B-GO8669","smartPhoneRequired":true,"vin":"WDC1569431J294695"},{"address":"Am Tucherpark 8, 80538 München","coordinates":[11.59785,48.15227,0],"engineType":"CE","exterior":"GOOD","fuel":50,"interior":"GOOD","name":"B-GO4671","smartPhoneRequired":true,"vin":"WME4533421K072673"},{"address":"Schlotthauerstraße 5, 81541 München","coordinates":[11.57622,48.12304,0],"engineType":"CE","exterior":"GOOD","fuel":44,"interior":"GOOD","name":"B-GO8582","smartPhoneRequired":true,"vin":"WDD1760121J513469"},{"address":"Hundesee, 80995 München","coordinates":[11.48055,48.19893,0],"engineType":"CE","exterior":"GOOD","fuel":65,"interior":"GOOD","name":"B-GO4794","smartPhoneRequired":true,"vin":"WME4533421K072684"},{"address":"Wolfratshauser Str. 157, 81479 München","coordinates":[11.52846,48.08038,0],"engineType":"CE","exterior":"GOOD","fuel":100,"interior":"GOOD","name":"B-GO3566","smartPhoneRequired":true,"vin":"WME4533421K036393"},{"address":"Elisabethstraße 8, 80796 München","coordinates":[11.57267,48.158,0],"engineType":"CE","exterior":"GOOD","fuel":100,"interior":"GOOD","name":"B-GO3704","smartPhoneRequired":true,"vin":"WME4533421K039090"},{"address":"Hans-Mielich-Straße 32, 81543 München","coordinates":[11.57007,48.11279,0],"engineType":"CE","exterior":"GOOD","fuel":70,"interior":"GOOD","name":"B-GO8618","smartPhoneRequired":true,"vin":"WDD1760431J511414"},{"address":"Pariser Str. 44-46, 81667 München","coordinates":[11.60102,48.12893,0],"engineType":"CE","exterior":"GOOD","fuel":100,"interior":"GOOD","name":"B-GO4800","smartPhoneRequired":true,"vin":"WME4533421K076213"},{"address":"Sedanstraße 34, 81667 München","coordinates":[11.60011,48.12871,0],"engineType":"CE","exterior":"GOOD","fuel":75,"interior":"GOOD","name":"B-GO3653","smartPhoneRequired":true,"vin":"WME4533421K035763"},{"address":"Effnerstraße 44-46, 81925 München","coordinates":[11.61705,48.15539,0],"engineType":"CE","exterior":"GOOD","fuel":87,"interior":"GOOD","name":"B-GO3472","smartPhoneRequired":true,"vin":"WME4533421K035568"},{"address":"Gertrud-Grunow-Straße 20, 80807 München","coordinates":[11.59702,48.18402,0],"engineType":"CE","exterior":"GOOD","fuel":31,"interior":"GOOD","name":"B-GO4698","smartPhoneRequired":true,"vin":"WME4533421K069784"},{"address":"Wilhelm-Kuhnert-Straße 14, 81543 München","coordinates":[11.55949,48.1048,0],"engineType":"CE","exterior":"GOOD","fuel":62,"interior":"GOOD","name":"B-GO4758","smartPhoneRequired":true,"vin":"WME4533421K072197"},{"address":"Klosestraße 8, 81677 München","coordinates":[11.62563,48.14013,0],"engineType":"CE","exterior":"GOOD","fuel":100,"interior":"GOOD","name":"B-GO3488","smartPhoneRequired":true,"vin":"WME4533421K036967"},{"address":"Karlspl. 4, 80335 München","coordinates":[11.56599,48.14028,0],"engineType":"CE","exterior":"GOOD","fuel":100,"interior":"GOOD","name":"B-GO8617","smartPhoneRequired":true,"vin":"WDD1760431J511962"},{"address":"Habsburgerstraße 1, 80801 München","coordinates":[11.57778,48.15592,0],"engineType":"CE","exterior":"GOOD","fuel":92,"interior":"GOOD","name":"B-GO5423","smartPhoneRequired":true,"vin":"WDC1569121J295270"},{"address":"Grillparzerstraße 43, 81675 München","coordinates":[11.60834,48.13733,0],"engineType":"CE","exterior":"GOOD","fuel":94,"interior":"GOOD","name":"B-GO8580","smartPhoneRequired":true,"vin":"WDD1760121J515314"},{"address":"Karl-Scharnagl-Ring 5, 80539 München","coordinates":[11.58425,48.13978,0],"engineType":"CE","exterior":"GOOD","fuel":81,"interior":"GOOD","name":"B-GO3718","smartPhoneRequired":true,"vin":"WME4533421K038407"},{"address":"Nymphenburger Str. 124, 80636 München","coordinates":[11.54019,48.15113,0],"engineType":"CE","exterior":"GOOD","fuel":62,"interior":"GOOD","name":"B-GO4253","smartPhoneRequired":true,"vin":"WME4533421K063377"},{"address":"Innstraße 3, 81679 München","coordinates":[11.60778,48.14492,0],"engineType":"CE","exterior":"GOOD","fuel":42,"interior":"GOOD","name":"B-GO8547","smartPhoneRequired":true,"vin":"WDD1760121J510938"},{"address":"Westermühlstraße 1A, 80469 München","coordinates":[11.56885,48.12891,0],"engineType":"CE","exterior":"GOOD","fuel":98,"interior":"GOOD","name":"B-GO8568","smartPhoneRequired":true,"vin":"WDD1760121J510999"},{"address":"Goethestraße 74, 80336 München","coordinates":[11.55837,48.13029,0],"engineType":"CE","exterior":"GOOD","fuel":100,"interior":"GOOD","name":"B-GO4806","smartPhoneRequired":true,"vin":"WME4533421K073133"},{"address":"Dom-Pedro-Platz 5, 80637 München","coordinates":[11.53414,48.15981,0],"engineType":"CE","exterior":"GOOD","fuel":24,"interior":"GOOD","name":"B-GO8638","smartPhoneRequired":true,"vin":"WDD1760431J514723"},{"address":"Truderinger Str. 132A, 81673 München","coordinates":[11.64568,48.13081,0],"engineType":"CE","exterior":"GOOD","fuel":72,"interior":"GOOD","name":"B-GO5421","smartPhoneRequired":true,"vin":"WDC1569431J294128"},{"address":"Kistlerhofstraße 259, 81379 München","coordinates":[11.50563,48.09428,0],"engineType":"CE","exterior":"GOOD","fuel":100,"interior":"GOOD","name":"B-GO4295","smartPhoneRequired":true,"vin":"WME4533421K065425"},{"address":"Mayerbacherstraße 35, 85737 Ismaning","coordinates":[11.68571,48.22833,0],"engineType":"CE","exterior":"GOOD","fuel":15,"interior":"GOOD","name":"B-GO4777","smartPhoneRequired":true,"vin":"WME4533421K070483"},{"address":"Vollmannstraße 43, 81925 München","coordinates":[11.62856,48.15114,0],"engineType":"CE","exterior":"GOOD","fuel":100,"interior":"GOOD","name":"B-GO3556","smartPhoneRequired":true,"vin":"WME4533421K036051"},{"address":"Schraudolphstraße 13, 80799 München","coordinates":[11.57235,48.15222,0],"engineType":"CE","exterior":"GOOD","fuel":21,"interior":"GOOD","name":"B-GO3617","smartPhoneRequired":true,"vin":"WME4533421K036567"},{"address":"Gustav-Heinemann-Ring 123, 81739 München","coordinates":[11.64331,48.0885,0],"engineType":"CE","exterior":"GOOD","fuel":100,"interior":"GOOD","name":"B-GO8556","smartPhoneRequired":true,"vin":"WDD1760121J510415"},{"address":"Dachauer Str. 233, 80637 München","coordinates":[11.54055,48.16375,0],"engineType":"CE","exterior":"GOOD","fuel":46,"interior":"GOOD","name":"B-GO8634","smartPhoneRequired":true,"vin":"WDD1760431J514438"},{"address":"Adalbertstraße 92, 80799 München","coordinates":[11.57126,48.1544,0],"engineType":"CE","exterior":"GOOD","fuel":96,"interior":"GOOD","name":"B-GO4646","smartPhoneRequired":true,"vin":"WME4533421K069884"},{"address":"Schyrenstraße 2A, 81543 München","coordinates":[11.56956,48.12129,0],"engineType":"CE","exterior":"GOOD","fuel":60,"interior":"GOOD","name":"B-GO8645","smartPhoneRequired":true,"vin":"WDD1760431J513845"},{"address":"Widenmayerstraße 45, 80538 München","coordinates":[11.59617,48.14781,0],"engineType":"CE","exterior":"GOOD","fuel":66,"interior":"GOOD","name":"B-GO8543","smartPhoneRequired":true,"vin":"WDD1760121J510511"},{"address":"Milbertshofener Str. 126, 80807 München","coordinates":[11.58175,48.1842,0],"engineType":"CE","exterior":"GOOD","fuel":62,"interior":"GOOD","name":"B-GO3460","smartPhoneRequired":true,"vin":"WME4533421K037434"},{"address":"Wolfratshauser Str., 81479 München","coordinates":[11.5272,48.07888,0],"engineType":"CE","exterior":"GOOD","fuel":75,"interior":"GOOD","name":"B-GO4262","smartPhoneRequired":true,"vin":"WME4533421K064632"},{"address":"Heisenbergbogen 1, 85609 Aschheim","coordinates":[11.68432,48.15084,0],"engineType":"CE","exterior":"GOOD","fuel":46,"interior":"GOOD","name":"B-GO3690","smartPhoneRequired":true,"vin":"WME4533421K037606"},{"address":"Landwehrstraße 42, 80336 München","coordinates":[11.55869,48.13636,0],"engineType":"CE","exterior":"GOOD","fuel":78,"interior":"GOOD","name":"B-GO8648","smartPhoneRequired":true,"vin":"WDC1569121J295587"},{"address":"Wahnfriedallee 25, 81925 München","coordinates":[11.62855,48.16047,0],"engineType":"CE","exterior":"GOOD","fuel":65,"interior":"GOOD","name":"B-GO4273","smartPhoneRequired":true,"vin":"WME4533421K065410"},{"address":"Machtlfinger Str. 15-17, 81379 München","coordinates":[11.51386,48.09576,0],"engineType":"CE","exterior":"GOOD","fuel":46,"interior":"GOOD","name":"B-GO3494","smartPhoneRequired":true,"vin":"WME4533421K036220"},{"address":"Leopoldstraße 48, 80802 München","coordinates":[11.58476,48.15776,0],"engineType":"CE","exterior":"GOOD","fuel":31,"interior":"GOOD","name":"B-GO4737","smartPhoneRequired":true,"vin":"WME4533421K070677"},{"address":"Jagdstraße 5, 80639 München","coordinates":[11.52876,48.15423,0],"engineType":"CE","exterior":"GOOD","fuel":52,"interior":"GOOD","name":"B-GO8574","smartPhoneRequired":true,"vin":"WDD1760121J514647"},{"address":"Steinheilstraße, 85737 Ismaning","coordinates":[11.68024,48.2281,0],"engineType":"CE","exterior":"GOOD","fuel":100,"interior":"GOOD","name":"B-GO4782","smartPhoneRequired":true,"vin":"WME4533421K071055"}]}